{
"type": "FeatureCollection",
"name": "детские_сады",
"crs": { "type": "name", "properties": { "name": "urn:ogc:def:crs:EPSG::3857" } },
"features": [
{ "type": "Feature", "properties": { "title": "Детский сад, Средняя общеобразовательная школа №5, Василеостровский район", "address": "Санкт-Петербург, 5-я линия В.О., 52" }, "geometry": { "type": "Point", "coordinates": [ 3370618.037483083084226, 8387610.936157983727753 ] } },
{ "type": "Feature", "properties": { "title": "Детский сад №39, Петроградский район", "address": "Санкт-Петербург, Ординарная, 20" }, "geometry": { "type": "Point", "coordinates": [ 3373502.993406482506543, 8392534.144559992477298 ] } },
{ "type": "Feature", "properties": { "title": "Детский сад №77 комбинированного вида, Петроградский район", "address": "Санкт-Петербург, Петровский проспект, 10а" }, "geometry": { "type": "Point", "coordinates": [ 3370199.030919737648219, 8390151.285131027922034 ] } },
{ "type": "Feature", "properties": { "title": "Детский сад №37 комбинированного вида, Василеостровский район", "address": "Санкт-Петербург, Набережная Макарова, 20" }, "geometry": { "type": "Point", "coordinates": [ 3371545.996758337132633, 8387904.342076848261058 ] } },
{ "type": "Feature", "properties": { "title": "Детский сад №109, Центральный район", "address": "Санкт-Петербург, Дворцовая набережная, 22" }, "geometry": { "type": "Point", "coordinates": [ 3375286.999565936625004, 8387217.301567575894296 ] } },
{ "type": "Feature", "properties": { "title": "Непоседы-ЛюмьерКидс, частный детский сад", "address": "Санкт-Петербург, Корпусная, 9" }, "geometry": { "type": "Point", "coordinates": [ 3371611.00734095973894, 8391449.47546436265111 ] } },
{ "type": "Feature", "properties": { "title": "Детский сад №51, Петроградский район", "address": "Санкт-Петербург, Чапыгина, 7 лит В" }, "geometry": { "type": "Point", "coordinates": [ 3374036.993003819137812, 8393772.245849208906293 ] } },
{ "type": "Feature", "properties": { "title": "Детский сад №74, Василеостровский район", "address": "Санкт-Петербург, Малый проспект В.О., 6" }, "geometry": { "type": "Point", "coordinates": [ 3370587.981220568995923, 8388170.862578899599612 ] } },
{ "type": "Feature", "properties": { "title": "Детский сад №72, Петроградский район", "address": "Санкт-Петербург, Константиновский проспект, 12 лит А" }, "geometry": { "type": "Point", "coordinates": [ 3369901.02864288398996, 8393392.7410181555897 ] } },
{ "type": "Feature", "properties": { "title": "Детский сад №17, Петроградский район", "address": "Санкт-Петербург, Каменноостровский проспект, 29" }, "geometry": { "type": "Point", "coordinates": [ 3374508.987644779495895, 8391886.037241308018565 ] } },
{ "type": "Feature", "properties": { "title": "Детский сад №85, Петроградский район", "address": "Санкт-Петербург, Малая Пушкарская, 20\/4" }, "geometry": { "type": "Point", "coordinates": [ 3373676.985770592000335, 8390681.162875685840845 ] } },
{ "type": "Feature", "properties": { "title": "Лицей №82 с дошкольным отделением, Петроградский район", "address": "Санкт-Петербург, Мира, 38" }, "geometry": { "type": "Point", "coordinates": [ 3376257.037608706858009, 8391452.366516871377826 ] } },
{ "type": "Feature", "properties": { "title": "Детский сад №15 компенсирующего вида, Петроградский район", "address": "Санкт-Петербург, Профессора Попова, 33" }, "geometry": { "type": "Point", "coordinates": [ 3373339.019796544220299, 8393367.604518629610538 ] } },
{ "type": "Feature", "properties": { "title": "Детский сад №76", "address": "Санкт-Петербург, Чайковского, 2\/7 лит М" }, "geometry": { "type": "Point", "coordinates": [ 3377408.971699435729533, 8387976.583962849341333 ] } },
{ "type": "Feature", "properties": { "title": "Взмах", "address": "Санкт-Петербург, Советская 10-я, 4-6" }, "geometry": { "type": "Point", "coordinates": [ 3381791.954010440502316, 8385806.968778444454074 ] } },
{ "type": "Feature", "properties": { "title": "Солнышко, частный детский сад", "address": "Санкт-Петербург, Ушаковская набережная, 3 к4" }, "geometry": { "type": "Point", "coordinates": [ 3374525.017651454545557, 8396036.111329400911927 ] } },
{ "type": "Feature", "properties": { "title": "International Language Academy, международная языковая академия", "address": "Санкт-Петербург, Тучков переулок, 2" }, "geometry": { "type": "Point", "coordinates": [ 3371839.991533520631492, 8387129.064513366669416 ] } },
{ "type": "Feature", "properties": { "title": "Детский сад №96 комбинированного вида, Петроградский район", "address": "Санкт-Петербург, Петровский проспект, 12 лит А" }, "geometry": { "type": "Point", "coordinates": [ 3369977.950411020312458, 8390166.182557893916965 ] } },
{ "type": "Feature", "properties": { "title": "bezzapinki, школа изучения английского и русского языков", "address": "Санкт-Петербург, Лахтинская, 24" }, "geometry": { "type": "Point", "coordinates": [ 3372829.955765144899487, 8391544.436013149097562 ] } },
{ "type": "Feature", "properties": { "title": "Средняя общеобразовательная школа №91 с дошкольным отделением, Петроградский район", "address": "Санкт-Петербург, Введенская, 9" }, "geometry": { "type": "Point", "coordinates": [ 3373261.98670891392976, 8390004.980658644810319 ] } },
{ "type": "Feature", "properties": { "title": "Радуга, сеть частных детских садов", "address": "Санкт-Петербург, Юнтоловский проспект, 49 к5" }, "geometry": { "type": "Point", "coordinates": [ 3355610.94560975022614, 8406549.784738563001156 ] } },
{ "type": "Feature", "properties": { "title": "Детский сад №32, Петроградский район", "address": "Санкт-Петербург, Большая Монетная, 24" }, "geometry": { "type": "Point", "coordinates": [ 3375646.00492374273017, 8391499.513071713969111 ] } },
{ "type": "Feature", "properties": { "title": "Детский сад №2, Петроградский район", "address": "Санкт-Петербург, Каменноостровский проспект, 25\/2" }, "geometry": { "type": "Point", "coordinates": [ 3374589.026358661707491, 8391526.42232551984489 ] } },
{ "type": "Feature", "properties": { "title": "Крошка Ру", "address": "Санкт-Петербург, Мичуринская, 12" }, "geometry": { "type": "Point", "coordinates": [ 3376030.947722906712443, 8389872.686562422662973 ] } },
{ "type": "Feature", "properties": { "title": "Детский сад №69, Петроградский район", "address": "Санкт-Петербург, Левашовский проспект, 16" }, "geometry": { "type": "Point", "coordinates": [ 3371877.951479881070554, 8392173.608366517350078 ] } },
{ "type": "Feature", "properties": { "title": "Детский сад №93, Петроградский район", "address": "Санкт-Петербург, Лизы Чайкиной, 5" }, "geometry": { "type": "Point", "coordinates": [ 3372813.035202545579523, 8389943.83603323623538 ] } },
{ "type": "Feature", "properties": { "title": "Детский сад №74, Приморский район", "address": "Санкт-Петербург, Савушкина, 115 к2" }, "geometry": { "type": "Point", "coordinates": [ 3365763.951087042223662, 8396608.028215304017067 ] } },
{ "type": "Feature", "properties": { "title": "Детский сад №96 комбинированного вида, Петроградский район", "address": "Санкт-Петербург, Петровский проспект, 12 лит А" }, "geometry": { "type": "Point", "coordinates": [ 3369977.950411020312458, 8390166.182557893916965 ] } },
{ "type": "Feature", "properties": { "title": "Детский сад №90, Петроградский район", "address": "Санкт-Петербург, Академика Павлова, 16Б" }, "geometry": { "type": "Point", "coordinates": [ 3373661.957639335189015, 8394375.356174206361175 ] } },
{ "type": "Feature", "properties": { "title": "Детский сад №39, Петроградский район", "address": "Санкт-Петербург, Ординарная, 19" }, "geometry": { "type": "Point", "coordinates": [ 3373580.026494110003114, 8392523.245921690016985 ] } },
{ "type": "Feature", "properties": { "title": "Детский сад №16, Петроградский район", "address": "Санкт-Петербург, Ординарная, 4" }, "geometry": { "type": "Point", "coordinates": [ 3373951.054356923792511, 8391933.186571404337883 ] } },
{ "type": "Feature", "properties": { "title": "Радуга, сеть частных детских садов", "address": "Санкт-Петербург, Юнтоловский проспект, 49 к5" }, "geometry": { "type": "Point", "coordinates": [ 3355610.94560975022614, 8406549.784738563001156 ] } },
{ "type": "Feature", "properties": { "title": "Детский сад №70 комбинированного вида, Петроградский район", "address": "Санкт-Петербург, Грота, 2а" }, "geometry": { "type": "Point", "coordinates": [ 3372251.984968946781009, 8393606.071046458557248 ] } },
{ "type": "Feature", "properties": { "title": "Ладошки, частный детский сад", "address": "Санкт-Петербург, Добролюбова проспект, 13" }, "geometry": { "type": "Point", "coordinates": [ 3373064.951210209634155, 8388543.429495074786246 ] } },
{ "type": "Feature", "properties": { "title": "Детский сад №10, Василеостровский район", "address": "Санкт-Петербург, Волховский переулок, 6 лит А" }, "geometry": { "type": "Point", "coordinates": [ 3371886.968358636833727, 8387471.572438948787749 ] } },
{ "type": "Feature", "properties": { "title": "Детский сад №8, Петроградский район", "address": "Санкт-Петербург, Кронверкский проспект, 31" }, "geometry": { "type": "Point", "coordinates": [ 3374785.950537874829024, 8390226.217269960790873 ] } },
{ "type": "Feature", "properties": { "title": "Кудесница, детский сад", "address": "Санкт-Петербург, Берёзовая 1-я аллея, 5" }, "geometry": { "type": "Point", "coordinates": [ 3372467.944781086873263, 8395061.507045313715935 ] } },
{ "type": "Feature", "properties": { "title": "Детский сад №83 для детей с нарушением зрения, Петроградский район", "address": "Санкт-Петербург, Большая Разночинная, 25Б" }, "geometry": { "type": "Point", "coordinates": [ 3371554.011761671863496, 8391275.124856447800994 ] } },
{ "type": "Feature", "properties": { "title": "Детский сад №53, Петроградский район", "address": "Санкт-Петербург, Большой проспект П.С., 67а" }, "geometry": { "type": "Point", "coordinates": [ 3374046.009882572107017, 8391725.909693513065577 ] } },
{ "type": "Feature", "properties": { "title": "Детский сад №29, Выборгский район", "address": "Санкт-Петербург, Большой Сампсониевский проспект, 51" }, "geometry": { "type": "Point", "coordinates": [ 3377649.978397004306316, 8393413.651091950014234 ] } },
{ "type": "Feature", "properties": { "title": "Лицей №82 с дошкольным отделением, Петроградский район", "address": "Санкт-Петербург, Мира, 38" }, "geometry": { "type": "Point", "coordinates": [ 3376257.037608706858009, 8391452.366516871377826 ] } },
{ "type": "Feature", "properties": { "title": "Детский сад №2, Петроградский район", "address": "Санкт-Петербург, Большая Пушкарская, 47" }, "geometry": { "type": "Point", "coordinates": [ 3374380.970230367965996, 8391737.919138878583908 ] } },
{ "type": "Feature", "properties": { "title": "Детский сад №29, Петроградский район", "address": "Санкт-Петербург, Каменноостровский проспект, 27Б" }, "geometry": { "type": "Point", "coordinates": [ 3374648.02568878326565, 8391857.125065490603447 ] } },
{ "type": "Feature", "properties": { "title": "Детский сад №29, Выборгский район", "address": "Санкт-Петербург, Большой Сампсониевский проспект, 51" }, "geometry": { "type": "Point", "coordinates": [ 3377649.978397004306316, 8393413.651091950014234 ] } },
{ "type": "Feature", "properties": { "title": "Детский сад №76", "address": "Санкт-Петербург, Чайковского, 2\/7 лит М" }, "geometry": { "type": "Point", "coordinates": [ 3377408.971699435729533, 8387976.583962849341333 ] } },
{ "type": "Feature", "properties": { "title": "Детский сад №32, Петроградский район", "address": "Санкт-Петербург, Рентгена, 15" }, "geometry": { "type": "Point", "coordinates": [ 3375574.983088616281748, 8391771.946007050573826 ] } },
{ "type": "Feature", "properties": { "title": "Детский сад №23 комбинированного вида, Петроградский район", "address": "Санкт-Петербург, Куйбышева, 1" }, "geometry": { "type": "Point", "coordinates": [ 3375982.969022375065833, 8389620.333823025226593 ] } },
{ "type": "Feature", "properties": { "title": "Детский сад №76", "address": "Санкт-Петербург, Чайковского, 2\/7 лит М" }, "geometry": { "type": "Point", "coordinates": [ 3377408.971699435729533, 8387976.583962849341333 ] } },
{ "type": "Feature", "properties": { "title": "Детский сад №63, компенсирующего вида, Петроградский район", "address": "Санкт-Петербург, Большая Зеленина, 27а" }, "geometry": { "type": "Point", "coordinates": [ 3371575.051145432982594, 8391760.826098199933767 ] } },
{ "type": "Feature", "properties": { "title": "Детский сад №58 компенсирующего вида, Петроградский район", "address": "Санкт-Петербург, Бармалеева, 13" }, "geometry": { "type": "Point", "coordinates": [ 3373609.971437135711312, 8391845.115425815805793 ] } },
{ "type": "Feature", "properties": { "title": "Детский сад №24, Петроградский район", "address": "Санкт-Петербург, Корпусная, 24г" }, "geometry": { "type": "Point", "coordinates": [ 3371202.01953178551048, 8391400.327745301648974 ] } },
{ "type": "Feature", "properties": { "title": "Детский сад №47, Петроградский район", "address": "Санкт-Петербург, Добролюбова проспект, 2" }, "geometry": { "type": "Point", "coordinates": [ 3373683.998898511286825, 8388452.286683231592178 ] } },
{ "type": "Feature", "properties": { "title": "Детский сад №12 компенсирующего вида, Петроградский район", "address": "Санкт-Петербург, Съезжинская, 18\/20 лит А" }, "geometry": { "type": "Point", "coordinates": [ 3372915.00385611038655, 8389651.460565883666277 ] } },
{ "type": "Feature", "properties": { "title": "Детский сад №92, Петроградский район", "address": "Санкт-Петербург, Ленина, 34" }, "geometry": { "type": "Point", "coordinates": [ 3373052.038149277679622, 8391606.705889921635389 ] } },
{ "type": "Feature", "properties": { "title": "Детский сад №53, Петроградский район", "address": "Санкт-Петербург, Большая Пушкарская, 56" }, "geometry": { "type": "Point", "coordinates": [ 3374180.038549487479031, 8391602.702810583636165 ] } },
{ "type": "Feature", "properties": { "title": "Детский сад №98, Петроградский район", "address": "Санкт-Петербург, Каменноостровский проспект, 31\/33" }, "geometry": { "type": "Point", "coordinates": [ 3374401.007738710846752, 8391944.306740406900644 ] } },
{ "type": "Feature", "properties": { "title": "Эдельвейс, частный детский сад", "address": "Санкт-Петербург, Съезжинская, 26-28" }, "geometry": { "type": "Point", "coordinates": [ 3373184.95362128643319, 8389594.320860216394067 ] } },
{ "type": "Feature", "properties": { "title": "Детский сад №36, Петроградский район", "address": "Санкт-Петербург, Ленина, 20" }, "geometry": { "type": "Point", "coordinates": [ 3373388.000372491776943, 8391339.171539103612304 ] } },
{ "type": "Feature", "properties": { "title": "Детский сад №8, Петроградский район", "address": "Санкт-Петербург, Каменноостровский проспект, 1-3а" }, "geometry": { "type": "Point", "coordinates": [ 3375301.025821775663644, 8390107.037727311253548 ] } },
{ "type": "Feature", "properties": { "title": "Средняя общеобразовательная школа №35 с углубленным изучением английского языка, с дошкольным отделением, Василеостровский район", "address": "Санкт-Петербург, Кадетская линия В.О., 5" }, "geometry": { "type": "Point", "coordinates": [ 3371822.959651429671794, 8387010.824072070419788 ] } },
{ "type": "Feature", "properties": { "title": "Детский сад №45, Петроградский район", "address": "Санкт-Петербург, Большой проспект П.С., 9\/1" }, "geometry": { "type": "Point", "coordinates": [ 3372309.982423650100827, 8389577.201268127188087 ] } },
{ "type": "Feature", "properties": { "title": "Детский сад №21, Петроградский район", "address": "Санкт-Петербург, Большая Зеленина, 13" }, "geometry": { "type": "Point", "coordinates": [ 3372194.989389661699533, 8391107.894476503133774 ] } },
{ "type": "Feature", "properties": { "title": "Взмах", "address": "Санкт-Петербург, Советская 10-я, 4-6" }, "geometry": { "type": "Point", "coordinates": [ 3381791.954010440502316, 8385806.968778444454074 ] } },
{ "type": "Feature", "properties": { "title": "Детский сад №13, Петроградский район", "address": "Санкт-Петербург, Каменноостровский проспект, 18" }, "geometry": { "type": "Point", "coordinates": [ 3374837.046184150036424, 8390750.096478726714849 ] } },
{ "type": "Feature", "properties": { "title": "Лицей №82 с дошкольным отделением, Петроградский район", "address": "Санкт-Петербург, Мира, 38" }, "geometry": { "type": "Point", "coordinates": [ 3376257.037608706858009, 8391452.366516871377826 ] } },
{ "type": "Feature", "properties": { "title": "Детский сад №40, Приморский район", "address": "Санкт-Петербург, Школьная, 74" }, "geometry": { "type": "Point", "coordinates": [ 3368334.98604640411213, 8396750.23545497469604 ] } },
{ "type": "Feature", "properties": { "title": "Little Foot, детский центр развития", "address": "Санкт-Петербург, Кемская, 1" }, "geometry": { "type": "Point", "coordinates": [ 3368480.035342908930033, 8393778.252237573266029 ] } },
{ "type": "Feature", "properties": { "title": "Детский сад №48 компенсирующего вида, Приморский район", "address": "Санкт-Петербург, Савушкина, 49" }, "geometry": { "type": "Point", "coordinates": [ 3370128.009084611199796, 8396343.650221368297935 ] } },
{ "type": "Feature", "properties": { "title": "Детский сад №50 комбинированного вида, Петроградский район", "address": "Санкт-Петербург, Литераторов, 19а" }, "geometry": { "type": "Point", "coordinates": [ 3374254.956566790118814, 8392963.875149607658386 ] } },
{ "type": "Feature", "properties": { "title": "РИД, частная школа-детский сад", "address": "Санкт-Петербург, Западная аллея, 1" }, "geometry": { "type": "Point", "coordinates": [ 3371578.947327611967921, 8394124.851386751979589 ] } },
{ "type": "Feature", "properties": { "title": "Эдельвейс, частный детский сад", "address": "Санкт-Петербург, Съезжинская, 26-28" }, "geometry": { "type": "Point", "coordinates": [ 3373184.95362128643319, 8389594.320860216394067 ] } },
{ "type": "Feature", "properties": { "title": "Детский сад №10, Приморский район", "address": "Санкт-Петербург, Набережная Чёрной речки, 31" }, "geometry": { "type": "Point", "coordinates": [ 3374210.985367928631604, 8396380.59135727584362 ] } },
{ "type": "Feature", "properties": { "title": "Детский сад №89, Петроградский район", "address": "Санкт-Петербург, Большая Пушкарская, 28\/2" }, "geometry": { "type": "Point", "coordinates": [ 3373389.002247910015285, 8390624.904638908803463 ] } },
{ "type": "Feature", "properties": { "title": "Детский сад №4, Петроградский район", "address": "Санкт-Петербург, Лизы Чайкиной, 14а" }, "geometry": { "type": "Point", "coordinates": [ 3373167.031183268409222, 8389925.82625849545002 ] } },
{ "type": "Feature", "properties": { "title": "Эдельвейс, частный детский сад", "address": "Санкт-Петербург, Съезжинская, 26-28" }, "geometry": { "type": "Point", "coordinates": [ 3373184.95362128643319, 8389594.320860216394067 ] } },
{ "type": "Feature", "properties": { "title": "Детский сад №89, Петроградский район", "address": "Санкт-Петербург, Большая Пушкарская, 28\/2" }, "geometry": { "type": "Point", "coordinates": [ 3373389.002247910015285, 8390624.904638908803463 ] } },
{ "type": "Feature", "properties": { "title": "Детский сад №16, Петроградский район", "address": "Санкт-Петербург, Ординарная, 4" }, "geometry": { "type": "Point", "coordinates": [ 3373951.054356923792511, 8391933.186571404337883 ] } },
{ "type": "Feature", "properties": { "title": "Детский сад №29, Выборгский район", "address": "Санкт-Петербург, Большой Сампсониевский проспект, 51" }, "geometry": { "type": "Point", "coordinates": [ 3377649.978397004306316, 8393413.651091950014234 ] } },
{ "type": "Feature", "properties": { "title": "Детский сад №25 комбинированного вида, Петроградский район", "address": "Санкт-Петербург, Плуталова, 9" }, "geometry": { "type": "Point", "coordinates": [ 3373365.959113315213472, 8392107.552753070369363 ] } },
{ "type": "Feature", "properties": { "title": "РИД, частная школа-детский сад", "address": "Санкт-Петербург, Западная аллея, 1" }, "geometry": { "type": "Point", "coordinates": [ 3371578.947327611967921, 8394124.851386751979589 ] } },
{ "type": "Feature", "properties": { "title": "Детский сад №17, Василеостровский район", "address": "Санкт-Петербург, Малый проспект В.О., 15в" }, "geometry": { "type": "Point", "coordinates": [ 3370157.954027634114027, 8388105.731991548091173 ] } },
{ "type": "Feature", "properties": { "title": "Детский сад №91, Петроградский район", "address": "Санкт-Петербург, Большая Монетная, 32" }, "geometry": { "type": "Point", "coordinates": [ 3376047.979604997672141, 8391689.881474876776338 ] } },
{ "type": "Feature", "properties": { "title": "Детский сад №32 комбинированного вида, Василеостровский район", "address": "Санкт-Петербург, Морская набережная, 43 к2" }, "geometry": { "type": "Point", "coordinates": [ 3365473.963813526555896, 8390423.668217493221164 ] } },
{ "type": "Feature", "properties": { "title": "Детский сад №93, Петроградский район", "address": "Санкт-Петербург, Лизы Чайкиной, 5" }, "geometry": { "type": "Point", "coordinates": [ 3372813.035202545579523, 8389943.83603323623538 ] } },
{ "type": "Feature", "properties": { "title": "Sun School, английский детский сад", "address": "Санкт-Петербург, Дивенская, 11" }, "geometry": { "type": "Point", "coordinates": [ 3375703.000503030139953, 8390991.591543218120933 ] } },
{ "type": "Feature", "properties": { "title": "Детский сад №10, Приморский район", "address": "Санкт-Петербург, Савушкина, 24" }, "geometry": { "type": "Point", "coordinates": [ 3371950.977065841201693, 8396436.893565339967608 ] } },
{ "type": "Feature", "properties": { "title": "Детский сад №64, Петроградский район", "address": "Санкт-Петербург, Бармалеева, 29а" }, "geometry": { "type": "Point", "coordinates": [ 3373268.99983683321625, 8392170.494620595127344 ] } },
{ "type": "Feature", "properties": { "title": "Детский сад №78, Петроградский район", "address": "Санкт-Петербург, Чапыгина, 5 к1" }, "geometry": { "type": "Point", "coordinates": [ 3374096.994209353346378, 8393509.749215561896563 ] } },
{ "type": "Feature", "properties": { "title": "Детский сад №52, Петроградский район", "address": "Санкт-Петербург, Большая Пушкарская, 29" }, "geometry": { "type": "Point", "coordinates": [ 3373729.97384820971638, 8390931.550594471395016 ] } },
{ "type": "Feature", "properties": { "title": "Кудесница, детский сад", "address": "Санкт-Петербург, Каменноостровский проспект, 64 лит Д" }, "geometry": { "type": "Point", "coordinates": [ 3373273.007338503375649, 8393877.469583569094539 ] } },
{ "type": "Feature", "properties": { "title": "Sun School, английский детский сад", "address": "Санкт-Петербург, Крестовский проспект, 15" }, "geometry": { "type": "Point", "coordinates": [ 3368641.003326595295221, 8392923.837079234421253 ] } },
{ "type": "Feature", "properties": { "title": "Детский сад №90, Петроградский район", "address": "Санкт-Петербург, Профессора Попова, 31а" }, "geometry": { "type": "Point", "coordinates": [ 3373465.033460122067481, 8393415.653123408555984 ] } },
{ "type": "Feature", "properties": { "title": "Paddington, частный детский сад", "address": "Санкт-Петербург, Тучков переулок, 2" }, "geometry": { "type": "Point", "coordinates": [ 3371839.991533520631492, 8387129.064513366669416 ] } },
{ "type": "Feature", "properties": { "title": "Детский сад №20, Приморский район", "address": "Санкт-Петербург, Дибуновская, 10" }, "geometry": { "type": "Point", "coordinates": [ 3370833.997295223642141, 8396589.111966211348772 ] } },
{ "type": "Feature", "properties": { "title": "Детский сад №23 комбинированного вида, Петроградский район", "address": "Санкт-Петербург, Троицкая площадь, 1" }, "geometry": { "type": "Point", "coordinates": [ 3373636.020197979640216, 8381184.054464122280478 ] } },
{ "type": "Feature", "properties": { "title": "bezzapinki, школа изучения английского и русского языков", "address": "Санкт-Петербург, Медиков проспект, 10 к5" }, "geometry": { "type": "Point", "coordinates": [ 3374667.951877632178366, 8394089.923775997012854 ] } },
{ "type": "Feature", "properties": { "title": "Детский сад №96 комбинированного вида, Петроградский район", "address": "Санкт-Петербург, Петровский проспект, 12 лит А" }, "geometry": { "type": "Point", "coordinates": [ 3369977.950411020312458, 8390166.182557893916965 ] } },
{ "type": "Feature", "properties": { "title": "Средняя общеобразовательная школа №35 с углубленным изучением английского языка, с дошкольным отделением, Василеостровский район", "address": "Санкт-Петербург, Кадетская линия В.О., 5" }, "geometry": { "type": "Point", "coordinates": [ 3371822.959651429671794, 8387010.824072070419788 ] } },
{ "type": "Feature", "properties": { "title": "Детский сад №93 комбинированного вида, Выборгский район", "address": "Санкт-Петербург, Большой Сампсониевский проспект, 17" }, "geometry": { "type": "Point", "coordinates": [ 3377906.013225827366114, 8391656.744565136730671 ] } },
{ "type": "Feature", "properties": { "title": "Радуга, сеть частных детских садов", "address": "Санкт-Петербург, Юнтоловский проспект, 49 к5" }, "geometry": { "type": "Point", "coordinates": [ 3355610.94560975022614, 8406549.784738563001156 ] } },
{ "type": "Feature", "properties": { "title": "Детский сад №89, Петроградский район", "address": "Санкт-Петербург, Лизы Чайкиной, 13-15а" }, "geometry": { "type": "Point", "coordinates": [ 3373148.997425759676844, 8389783.528351712971926 ] } },
{ "type": "Feature", "properties": { "title": "Детский сад №32 комбинированного вида, Василеостровский район", "address": "Санкт-Петербург, Морская набережная, 43 к2" }, "geometry": { "type": "Point", "coordinates": [ 3365473.963813526555896, 8390423.668217493221164 ] } },
{ "type": "Feature", "properties": { "title": "Детский сад №3, Петроградский район", "address": "Санкт-Петербург, Академика Павлова, 8 к2" }, "geometry": { "type": "Point", "coordinates": [ 3374600.046988248825073, 8394561.571735721081495 ] } },
{ "type": "Feature", "properties": { "title": "Детский сад №62 с приоритетным осуществлением деятельности по художественно-эстетическому развитию детей, Петроградский район", "address": "Санкт-Петербург, Бармалеева, 30а" }, "geometry": { "type": "Point", "coordinates": [ 3373156.010553678963333, 8392114.447419047355652 ] } },
{ "type": "Feature", "properties": { "title": "100 Языков, школа-сад", "address": "Санкт-Петербург, Кронверкский проспект, 77" }, "geometry": { "type": "Point", "coordinates": [ 3373655.946386831346899, 8388653.691574338823557 ] } },
{ "type": "Feature", "properties": { "title": "Детский сад №38, Петроградский район", "address": "Санкт-Петербург, Кронверкский проспект, 73" }, "geometry": { "type": "Point", "coordinates": [ 3373605.963935465551913, 8388888.003971271216869 ] } },
{ "type": "Feature", "properties": { "title": "Детский сад №16, Петроградский район", "address": "Санкт-Петербург, Ординарная, 4" }, "geometry": { "type": "Point", "coordinates": [ 3373951.054356923792511, 8391933.186571404337883 ] } },
{ "type": "Feature", "properties": { "title": "Детский сад №3, Петроградский район", "address": "Санкт-Петербург, Академика Павлова, 8 к2" }, "geometry": { "type": "Point", "coordinates": [ 3374600.046988248825073, 8394561.571735721081495 ] } },
{ "type": "Feature", "properties": { "title": "РИД, частная школа-детский сад", "address": "Санкт-Петербург, Западная аллея, 1" }, "geometry": { "type": "Point", "coordinates": [ 3371578.947327611967921, 8394124.851386751979589 ] } },
{ "type": "Feature", "properties": { "title": "Детский сад №3, Петроградский район", "address": "Санкт-Петербург, Академика Павлова, 8 к2" }, "geometry": { "type": "Point", "coordinates": [ 3374600.046988248825073, 8394561.571735721081495 ] } },
{ "type": "Feature", "properties": { "title": "Золотая бусина, центр дошкольного развития", "address": "Санкт-Петербург, Большая Посадская, 3" }, "geometry": { "type": "Point", "coordinates": [ 3375468.005057965870947, 8390374.527340706437826 ] } },
{ "type": "Feature", "properties": { "title": "Детский сад №82, Петроградский район", "address": "Санкт-Петербург, Зверинская, 28-30" }, "geometry": { "type": "Point", "coordinates": [ 3373059.051277199760079, 8389337.753480209037662 ] } },
{ "type": "Feature", "properties": { "title": "Детский сад №30, Петроградский район", "address": "Санкт-Петербург, Профессора Попова, 12в" }, "geometry": { "type": "Point", "coordinates": [ 3374313.955896911676973, 8393147.163316501304507 ] } },
{ "type": "Feature", "properties": { "title": "Детский сад №93, Петроградский район", "address": "Санкт-Петербург, Лизы Чайкиной, 5" }, "geometry": { "type": "Point", "coordinates": [ 3372813.035202545579523, 8389943.83603323623538 ] } },
{ "type": "Feature", "properties": { "title": "Детский сад №50 комбинированного вида, Петроградский район", "address": "Санкт-Петербург, Набережная реки Карповки, 13" }, "geometry": { "type": "Point", "coordinates": [ 3374375.960853282362223, 8392759.683265624567866 ] } },
{ "type": "Feature", "properties": { "title": "Детский сад №32 комбинированного вида, Василеостровский район", "address": "Санкт-Петербург, Морская набережная, 43 к2" }, "geometry": { "type": "Point", "coordinates": [ 3365473.963813526555896, 8390423.668217493221164 ] } },
{ "type": "Feature", "properties": { "title": "Немецкая школа в Санкт-Петербурге при Генконсульстве Германии", "address": "Санкт-Петербург, Железноводская, 1" }, "geometry": { "type": "Point", "coordinates": [ 3368593.02462606318295, 8389233.706170331686735 ] } },
{ "type": "Feature", "properties": { "title": "Детский сад №38, Петроградский район", "address": "Санкт-Петербург, Татарский переулок, 8а" }, "geometry": { "type": "Point", "coordinates": [ 3373427.964069685898721, 8389341.755329160019755 ] } },
{ "type": "Feature", "properties": { "title": "Детский сад №89, Петроградский район", "address": "Санкт-Петербург, Большая Пушкарская, 28\/2" }, "geometry": { "type": "Point", "coordinates": [ 3373389.002247910015285, 8390624.904638908803463 ] } },
{ "type": "Feature", "properties": { "title": "Детский сад №43, Петроградский район", "address": "Санкт-Петербург, Большая Монетная, 8" }, "geometry": { "type": "Point", "coordinates": [ 3374502.976392278447747, 8391147.922679353505373 ] } },
{ "type": "Feature", "properties": { "title": "Детский сад №45, Петроградский район", "address": "Санкт-Петербург, Ждановская набережная, 11" }, "geometry": { "type": "Point", "coordinates": [ 3371577.945452193729579, 8389487.157315205782652 ] } },
{ "type": "Feature", "properties": { "title": "Детский сад №16, Петроградский район", "address": "Санкт-Петербург, Ординарная, 3а" }, "geometry": { "type": "Point", "coordinates": [ 3373961.963667022529989, 8392077.52767001464963 ] } },
{ "type": "Feature", "properties": { "title": "Детский сад №80, Петроградский район", "address": "Санкт-Петербург, Гатчинская, 19-21" }, "geometry": { "type": "Point", "coordinates": [ 3372870.030781832989305, 8391386.317369597032666 ] } },
{ "type": "Feature", "properties": { "title": "АКАДЕМИ`КА, частный детский сад", "address": "Санкт-Петербург, Кронверкская, 16" }, "geometry": { "type": "Point", "coordinates": [ 3374209.983492510393262, 8391011.605301531031728 ] } },
{ "type": "Feature", "properties": { "title": "Planet kids, частный детский сад", "address": "Санкт-Петербург, Крестьянский переулок, 5" }, "geometry": { "type": "Point", "coordinates": [ 3375567.969960696529597, 8390194.198695981875062 ] } },
{ "type": "Feature", "properties": { "title": "Средняя общеобразовательная школа №35 с углубленным изучением английского языка, с дошкольным отделением, Василеостровский район", "address": "Санкт-Петербург, Кадетская линия В.О., 5" }, "geometry": { "type": "Point", "coordinates": [ 3371822.959651429671794, 8387010.824072070419788 ] } },
{ "type": "Feature", "properties": { "title": "Детский сад №86, Петроградский район", "address": "Санкт-Петербург, Большая Монетная, 11" }, "geometry": { "type": "Point", "coordinates": [ 3374714.038146821316332, 8391075.64969346858561 ] } },
{ "type": "Feature", "properties": { "title": "Школа №25 с дошкольным отделением", "address": "Санкт-Петербург, Левашовский проспект, 2" }, "geometry": { "type": "Point", "coordinates": [ 3372739.007741166744381, 8392145.584700603038073 ] } },
{ "type": "Feature", "properties": { "title": "Мир обучения, британский центр раннего развития", "address": "Санкт-Петербург, Ординарная, 20" }, "geometry": { "type": "Point", "coordinates": [ 3373502.993406482506543, 8392534.144559992477298 ] } },
{ "type": "Feature", "properties": { "title": "Детский сад №10, Приморский район", "address": "Санкт-Петербург, Савушкина, 18" }, "geometry": { "type": "Point", "coordinates": [ 3372286.048733128234744, 8396414.639676729217172 ] } },
{ "type": "Feature", "properties": { "title": "Взмах", "address": "Санкт-Петербург, Советская 10-я, 4-6" }, "geometry": { "type": "Point", "coordinates": [ 3381791.954010440502316, 8385806.968778444454074 ] } }
]
}
