{
"type": "FeatureCollection",
"name": "магазины",
"crs": { "type": "name", "properties": { "name": "urn:ogc:def:crs:EPSG::3857" } },
"features": [
{ "type": "Feature", "properties": { "title": "Пятёрочка, сеть супермаркетов", "address": "Санкт-Петербург, Левашовский проспект, 22 лит А" }, "geometry": { "type": "Point", "coordinates": [ 3371483.991801963653415, 8392208.749304579570889 ] } },
{ "type": "Feature", "properties": { "title": "торговая марка Меркурий, ООО, Продуктовый магазин", "address": "Санкт-Петербург, Куйбышева, 36" }, "geometry": { "type": "Point", "coordinates": [ 3376613.037340263836086, 8390325.386791653931141 ] } },
{ "type": "Feature", "properties": { "title": "Естный, сеть супермаркетов", "address": "Санкт-Петербург, Профессора Попова, 30" }, "geometry": { "type": "Point", "coordinates": [ 3373380.987244572024792, 8393303.540199726819992 ] } },
{ "type": "Feature", "properties": { "title": "Веста, ООО, продуктовый магазин", "address": "Санкт-Петербург, Большой Сампсониевский проспект, 39" }, "geometry": { "type": "Point", "coordinates": [ 3377714.988979626912624, 8392591.307069834321737 ] } },
{ "type": "Feature", "properties": { "title": "ЭЛСО ЭнергоДом, магазин", "address": "Санкт-Петербург, Большая Зеленина, 3" }, "geometry": { "type": "Point", "coordinates": [ 3372470.950407338794321, 8390790.345106454566121 ] } },
{ "type": "Feature", "properties": { "title": "Продуктовый магазин", "address": "Санкт-Петербург, Малая Посадская, 13 к3" }, "geometry": { "type": "Point", "coordinates": [ 3376015.029035722836852, 8390216.211450645700097 ] } },
{ "type": "Feature", "properties": { "title": "Продовольственный магазин", "address": "Санкт-Петербург, Карельский переулок, 3Б" }, "geometry": { "type": "Point", "coordinates": [ 3372463.046723492443562, 8396818.335668694227934 ] } },
{ "type": "Feature", "properties": { "title": "Супер БАБИЛОН, сеть супермаркетов", "address": "Санкт-Петербург, Малый проспект П.С., 54-56" }, "geometry": { "type": "Point", "coordinates": [ 3372774.963936693500727, 8391179.945398207753897 ] } },
{ "type": "Feature", "properties": { "title": "МинутаМаркет, сеть мини-маркетов", "address": "Санкт-Петербург, Выборгская набережная, 61" }, "geometry": { "type": "Point", "coordinates": [ 3375482.031313804443926, 8395438.205239670351148 ] } },
{ "type": "Feature", "properties": { "title": "Естный, сеть супермаркетов", "address": "Санкт-Петербург, Корпусная, 9" }, "geometry": { "type": "Point", "coordinates": [ 3371611.00734095973894, 8391449.47546436265111 ] } },
{ "type": "Feature", "properties": { "title": "Беларусачка, сеть продуктовых магазинов", "address": "Санкт-Петербург, Академика Крылова, 3а" }, "geometry": { "type": "Point", "coordinates": [ 3373243.952951404731721, 8396565.077272735536098 ] } },
{ "type": "Feature", "properties": { "title": "Комета1, ООО, мини-маркет", "address": "Санкт-Петербург, Каменноостровский проспект, 43" }, "geometry": { "type": "Point", "coordinates": [ 3374011.946118387859315, 8392736.550772918388247 ] } },
{ "type": "Feature", "properties": { "title": "Продукты, магазин", "address": "Санкт-Петербург, Шпалерная, 11" }, "geometry": { "type": "Point", "coordinates": [ 3377992.953748137690127, 8388256.889185825362802 ] } },
{ "type": "Feature", "properties": { "title": "Жилищное агентство Петроградского района", "address": "Санкт-Петербург, Большая Монетная, 11" }, "geometry": { "type": "Point", "coordinates": [ 3374714.038146821316332, 8391075.64969346858561 ] } },
{ "type": "Feature", "properties": { "title": "Piccolo, магазин", "address": "Санкт-Петербург, Фокина, 1" }, "geometry": { "type": "Point", "coordinates": [ 3377501.032918323297054, 8392364.883853664621711 ] } },
{ "type": "Feature", "properties": { "title": "Реалъ, сеть универсамов", "address": "Санкт-Петербург, Набережная Мартынова, 12" }, "geometry": { "type": "Point", "coordinates": [ 3368745.977606412023306, 8393983.584681339561939 ] } },
{ "type": "Feature", "properties": { "title": "Ладоград, сеть магазинов", "address": "Санкт-Петербург, Сестрорецкая, 3" }, "geometry": { "type": "Point", "coordinates": [ 3372244.97184102749452, 8396982.802506722509861 ] } },
{ "type": "Feature", "properties": { "title": "Полушка, сеть универсамов", "address": "Санкт-Петербург, Дибуновская, 37" }, "geometry": { "type": "Point", "coordinates": [ 3369543.025160493329167, 8396509.886791925877333 ] } },
{ "type": "Feature", "properties": { "title": "Милас, продуктовый магазин", "address": "Санкт-Петербург, Аптекарский проспект, 2" }, "geometry": { "type": "Point", "coordinates": [ 3374958.050470641814172, 8392763.686973657459021 ] } },
{ "type": "Feature", "properties": { "title": "Помидор, продовольственный магазин", "address": "Санкт-Петербург, Кораблестроителей, 44 к1" }, "geometry": { "type": "Point", "coordinates": [ 3365073.992883108090609, 8390173.297757476568222 ] } },
{ "type": "Feature", "properties": { "title": "Мировые судьи Петроградского района", "address": "Санкт-Петербург, Большая Разночинная, 23Б" }, "geometry": { "type": "Point", "coordinates": [ 3371633.048600136302412, 8391127.908550744876266 ] } },
{ "type": "Feature", "properties": { "title": "Балтэкс Сити, ООО, продуктовый магазин", "address": "Санкт-Петербург, Малый проспект П.С., 70" }, "geometry": { "type": "Point", "coordinates": [ 3373193.970500039402395, 8391651.62948496080935 ] } },
{ "type": "Feature", "properties": { "title": "Продуктовый магазин", "address": "Санкт-Петербург, 5-я линия В.О., 46" }, "geometry": { "type": "Point", "coordinates": [ 3370708.985507061239332, 8387454.680046046152711 ] } },
{ "type": "Feature", "properties": { "title": "ДИКСИ, сеть супермаркетов", "address": "Санкт-Петербург, Чкаловский проспект, 56" }, "geometry": { "type": "Point", "coordinates": [ 3373210.000506714452058, 8392672.491941414773464 ] } },
{ "type": "Feature", "properties": { "title": "Раймонд, ООО, продуктовый магазин", "address": "Санкт-Петербург, Кропоткина, 5" }, "geometry": { "type": "Point", "coordinates": [ 3374070.945448509417474, 8390622.903365673497319 ] } },
{ "type": "Feature", "properties": { "title": "Естный, сеть супермаркетов", "address": "Санкт-Петербург, Дивенская, 5" }, "geometry": { "type": "Point", "coordinates": [ 3375314.050202198792249, 8390808.35699450224638 ] } },
{ "type": "Feature", "properties": { "title": "ДИКСИ, сеть супермаркетов", "address": "Санкт-Петербург, Рыбацкая, 5" }, "geometry": { "type": "Point", "coordinates": [ 3372635.03533676546067, 8390580.876753244549036 ] } },
{ "type": "Feature", "properties": { "title": "Лютики цветочки, магазин", "address": "Санкт-Петербург, Малый проспект П.С., 82" }, "geometry": { "type": "Point", "coordinates": [ 3373475.052214293275028, 8392019.257117254659534 ] } },
{ "type": "Feature", "properties": { "title": "ДИКСИ, сеть супермаркетов", "address": "Санкт-Петербург, Чкаловский проспект, 56" }, "geometry": { "type": "Point", "coordinates": [ 3373210.000506714452058, 8392672.491941414773464 ] } },
{ "type": "Feature", "properties": { "title": "il Gusto, гастроном", "address": "Санкт-Петербург, Пионерская, 50 лит А" }, "geometry": { "type": "Point", "coordinates": [ 3369993.980417695827782, 8391624.719773845747113 ] } },
{ "type": "Feature", "properties": { "title": "Продуктовый магазин", "address": "Санкт-Петербург, Профессора Попова, 12" }, "geometry": { "type": "Point", "coordinates": [ 3374228.017250019591302, 8393263.500283323228359 ] } },
{ "type": "Feature", "properties": { "title": "Естный, сеть супермаркетов", "address": "Санкт-Петербург, Добролюбова проспект, 27" }, "geometry": { "type": "Point", "coordinates": [ 3372625.016582594253123, 8388775.959922078996897 ] } },
{ "type": "Feature", "properties": { "title": "Продовольственный магазин", "address": "Санкт-Петербург, Динамо проспект, 44 лит Е" }, "geometry": { "type": "Point", "coordinates": [ 3369634.975059886928648, 8392632.455454578623176 ] } },
{ "type": "Feature", "properties": { "title": "SPAR, сеть супермаркетов", "address": "Санкт-Петербург, Савушкина, 7 к3" }, "geometry": { "type": "Point", "coordinates": [ 3372697.040293138939887, 8396826.347499933093786 ] } },
{ "type": "Feature", "properties": { "title": "Неолит, ООО, продуктовый магазин", "address": "Санкт-Петербург, Подрезова, 17" }, "geometry": { "type": "Point", "coordinates": [ 3373364.95723789697513, 8391882.034010197967291 ] } },
{ "type": "Feature", "properties": { "title": "Омега плюс, магазин", "address": "Санкт-Петербург, Яблочкова, 5" }, "geometry": { "type": "Point", "coordinates": [ 3372994.040694574359804, 8388885.113924786448479 ] } },
{ "type": "Feature", "properties": { "title": "Пятёрочка, сеть супермаркетов", "address": "Санкт-Петербург, Чапаева, 15" }, "geometry": { "type": "Point", "coordinates": [ 3376468.989919179584831, 8391099.888862024992704 ] } },
{ "type": "Feature", "properties": { "title": "Дары Алтая, магазин", "address": "Санкт-Петербург, Кронверкская, 8" }, "geometry": { "type": "Point", "coordinates": [ 3374333.993405254557729, 8390507.71988864056766 ] } },
{ "type": "Feature", "properties": { "title": "Лента, сеть супермаркетов", "address": "Санкт-Петербург, Левашовский проспект, 21" }, "geometry": { "type": "Point", "coordinates": [ 3371097.045251968782395, 8392340.862938435748219 ] } },
{ "type": "Feature", "properties": { "title": "О`КЕЙ, сеть гипермаркетов", "address": "Санкт-Петербург, Академика Павлова, 5" }, "geometry": { "type": "Point", "coordinates": [ 3374950.035467304289341, 8394725.988193351775408 ] } },
{ "type": "Feature", "properties": { "title": "Продуктовый магазин", "address": "Санкт-Петербург, Большой Сампсониевский проспект, 48" }, "geometry": { "type": "Point", "coordinates": [ 3377446.041089869104326, 8393430.779600886628032 ] } },
{ "type": "Feature", "properties": { "title": "Естный, сеть супермаркетов", "address": "Санкт-Петербург, 4-я линия В.О., 59" }, "geometry": { "type": "Point", "coordinates": [ 3370329.052084982860833, 8388271.115904939360917 ] } },
{ "type": "Feature", "properties": { "title": "Белорусский гостинец, сеть продовольственных магазинов", "address": "Санкт-Петербург, Зверинская, 1" }, "geometry": { "type": "Point", "coordinates": [ 3372147.010689130052924, 8389354.872515965253115 ] } },
{ "type": "Feature", "properties": { "title": "Фирма Вип, ООО, продовольственный магазин", "address": "Санкт-Петербург, Большая Монетная, 11" }, "geometry": { "type": "Point", "coordinates": [ 3374714.038146821316332, 8391075.64969346858561 ] } },
{ "type": "Feature", "properties": { "title": "Прибой, ООО, продуктовый магазин", "address": "Санкт-Петербург, Кронверкский проспект, 25" }, "geometry": { "type": "Point", "coordinates": [ 3374937.011086881160736, 8390174.187157904729247 ] } },
{ "type": "Feature", "properties": { "title": "Life and style, магазин", "address": "Санкт-Петербург, Большая Пушкарская, 38" }, "geometry": { "type": "Point", "coordinates": [ 3373646.038952150847763, 8390947.561466298997402 ] } },
{ "type": "Feature", "properties": { "title": "MaxMassage, магазин", "address": "Санкт-Петербург, Ординарная, 18" }, "geometry": { "type": "Point", "coordinates": [ 3373524.032790243625641, 8392378.006423771381378 ] } },
{ "type": "Feature", "properties": { "title": "Фруктовая лавка, магазин", "address": "Санкт-Петербург, Большая Зеленина, 26" }, "geometry": { "type": "Point", "coordinates": [ 3371458.054360608104616, 8391718.792994387447834 ] } },
{ "type": "Feature", "properties": { "title": "ДИКСИ, сеть супермаркетов", "address": "Санкт-Петербург, Кадетская линия В.О., 25" }, "geometry": { "type": "Point", "coordinates": [ 3371505.031185724772513, 8387537.80877420399338 ] } },
{ "type": "Feature", "properties": { "title": "Магазин", "address": "Санкт-Петербург, Мичуринская, 12" }, "geometry": { "type": "Point", "coordinates": [ 3376030.947722906712443, 8389872.686562422662973 ] } },
{ "type": "Feature", "properties": { "title": "Продовольственный магазин", "address": "Санкт-Петербург, Профессора Попова, 38 к1" }, "geometry": { "type": "Point", "coordinates": [ 3372470.950407338794321, 8393328.454035326838493 ] } },
{ "type": "Feature", "properties": { "title": "Продуктовый магазин", "address": "Санкт-Петербург, Уральская, 8Б" }, "geometry": { "type": "Point", "coordinates": [ 3368888.021276664920151, 8389156.560929697006941 ] } },
{ "type": "Feature", "properties": { "title": "МинутаМаркет, сеть мини-маркетов", "address": "Санкт-Петербург, Профессора Попова, 37 лит Щ" }, "geometry": { "type": "Point", "coordinates": [ 3372974.003186231479049, 8393409.647030677646399 ] } },
{ "type": "Feature", "properties": { "title": "ДИКСИ, сеть супермаркетов", "address": "Санкт-Петербург, Большой Сампсониевский проспект, 35" }, "geometry": { "type": "Point", "coordinates": [ 3377759.962053907103837, 8392394.020439296960831 ] } },
{ "type": "Feature", "properties": { "title": "Криста, ООО, мини-маркет", "address": "Санкт-Петербург, Льва Толстого, 5" }, "geometry": { "type": "Point", "coordinates": [ 3374570.992601152975112, 8392025.262076579034328 ] } },
{ "type": "Feature", "properties": { "title": "Белорусский продукт, сеть продовольственных магазинов", "address": "Санкт-Петербург, Мичуринская, 11" }, "geometry": { "type": "Point", "coordinates": [ 3376084.047120015602559, 8389924.714545441791415 ] } },
{ "type": "Feature", "properties": { "title": "Продовольственный магазин, ИП Никонова С.А.", "address": "Санкт-Петербург, Добролюбова проспект, 7\/2" }, "geometry": { "type": "Point", "coordinates": [ 3373264.992335165850818, 8388514.530432680621743 ] } },
{ "type": "Feature", "properties": { "title": "Лэнд, сеть супермаркетов", "address": "Санкт-Петербург, Льва Толстого, 9" }, "geometry": { "type": "Point", "coordinates": [ 3374724.947456919588149, 8391977.222539007663727 ] } },
{ "type": "Feature", "properties": { "title": "Берегиня Алтая, магазин", "address": "Санкт-Петербург, Большая Пушкарская, 25" }, "geometry": { "type": "Point", "coordinates": [ 3373613.978938803076744, 8390791.234581377357244 ] } },
{ "type": "Feature", "properties": { "title": "Удачная охота, продуктовый магазин", "address": "Санкт-Петербург, Чкаловский проспект, 58" }, "geometry": { "type": "Point", "coordinates": [ 3373242.951075989287347, 8392713.418352844193578 ] } },
{ "type": "Feature", "properties": { "title": "Аэролит, магазин", "address": "Санкт-Петербург, Большая Разночинная, 32" }, "geometry": { "type": "Point", "coordinates": [ 3371230.962599392980337, 8391282.018743466585875 ] } },
{ "type": "Feature", "properties": { "title": "Ногти.РФ, магазин", "address": "Санкт-Петербург, Фокина, 1" }, "geometry": { "type": "Point", "coordinates": [ 3377501.032918323297054, 8392364.883853664621711 ] } },
{ "type": "Feature", "properties": { "title": "Управление Пенсионного фонда РФ в Петроградском районе", "address": "Санкт-Петербург, Профессора Попова, 37" }, "geometry": { "type": "Point", "coordinates": [ 3372728.988986995536834, 8393401.638914642855525 ] } },
{ "type": "Feature", "properties": { "title": "Продуктовый магазин, ИП Хасанова М.Э.", "address": "Санкт-Петербург, Малая Посадская, 13 к1" }, "geometry": { "type": "Point", "coordinates": [ 3375993.989651964511722, 8390202.203326430171728 ] } },
{ "type": "Feature", "properties": { "title": "Свои книги, магазин", "address": "Санкт-Петербург, Репина, 41" }, "geometry": { "type": "Point", "coordinates": [ 3371408.962465169839561, 8387346.436289545148611 ] } },
{ "type": "Feature", "properties": { "title": "ВамЗдорово, ООО, магазин", "address": "Санкт-Петербург, Большой проспект П.С., 100" }, "geometry": { "type": "Point", "coordinates": [ 3374432.956432570237666, 8392331.966323036700487 ] } },
{ "type": "Feature", "properties": { "title": "Магнит, сеть универсамов", "address": "Санкт-Петербург, Ижорская, 13" }, "geometry": { "type": "Point", "coordinates": [ 3372648.950273116119206, 8390711.18226870149374 ] } },
{ "type": "Feature", "properties": { "title": "Мировые судьи Петроградского района", "address": "Санкт-Петербург, Большая Разночинная, 23Б" }, "geometry": { "type": "Point", "coordinates": [ 3371633.048600136302412, 8391127.908550744876266 ] } },
{ "type": "Feature", "properties": { "title": "ДИКСИ, сеть супермаркетов", "address": "Санкт-Петербург, Каменноостровский проспект, 54\/31" }, "geometry": { "type": "Point", "coordinates": [ 3373645.037076735403389, 8393413.651091950014234 ] } },
{ "type": "Feature", "properties": { "title": "Рапира, магазин", "address": "Санкт-Петербург, Чкаловский проспект, 25" }, "geometry": { "type": "Point", "coordinates": [ 3372758.043374094180763, 8391955.204522302374244 ] } },
{ "type": "Feature", "properties": { "title": "Продуктовый магазин", "address": "Санкт-Петербург, Ленина, 50" }, "geometry": { "type": "Point", "coordinates": [ 3372495.99729276727885, 8392041.275325385853648 ] } },
{ "type": "Feature", "properties": { "title": "Санкт-Петербургские сувениры, магазин", "address": "Санкт-Петербург, Петропавловская Крепость, 3в" }, "geometry": { "type": "Point", "coordinates": [ 3374712.034395987633616, 8388758.842231262475252 ] } },
{ "type": "Feature", "properties": { "title": "Лента, сеть гипермаркетов", "address": "Санкт-Петербург, Уральская, 29 к1" }, "geometry": { "type": "Point", "coordinates": [ 3366780.965954928658903, 8390019.8777897041291 ] } },
{ "type": "Feature", "properties": { "title": "Garden и Я, магазин", "address": "Санкт-Петербург, Средний проспект В.О., 13" }, "geometry": { "type": "Point", "coordinates": [ 3371214.042036790400743, 8387492.68798453733325 ] } },
{ "type": "Feature", "properties": { "title": "Петроградский, ООО, гастроном", "address": "Санкт-Петербург, Каменноостровский проспект, 39" }, "geometry": { "type": "Point", "coordinates": [ 3374186.049801988527179, 8392386.013427184894681 ] } },
{ "type": "Feature", "properties": { "title": "Берег, ООО, продуктовый магазин", "address": "Санкт-Петербург, Чкаловский проспект, 60" }, "geometry": { "type": "Point", "coordinates": [ 3373276.012964755296707, 8392756.569271989166737 ] } },
{ "type": "Feature", "properties": { "title": "Пятёрочка, сеть супермаркетов", "address": "Санкт-Петербург, Левашовский проспект, 22 лит А" }, "geometry": { "type": "Point", "coordinates": [ 3371483.991801963653415, 8392208.749304579570889 ] } },
{ "type": "Feature", "properties": { "title": "Магазин фермерских продуктов, ИП Куприян А.С.", "address": "Санкт-Петербург, Каменноостровский проспект, 26-28" }, "geometry": { "type": "Point", "coordinates": [ 3374528.023277706932276, 8391470.380023440346122 ] } },
{ "type": "Feature", "properties": { "title": "Азбука вкуса, сеть супермаркетов", "address": "Санкт-Петербург, Большой проспект П.С., 58" }, "geometry": { "type": "Point", "coordinates": [ 3373373.974116652738303, 8391075.64969346858561 ] } },
{ "type": "Feature", "properties": { "title": "ДИКСИ, сеть супермаркетов", "address": "Санкт-Петербург, Большая Зеленина, 14" }, "geometry": { "type": "Point", "coordinates": [ 3371977.025826687924564, 8391205.963959768414497 ] } },
{ "type": "Feature", "properties": { "title": "ДИКСИ, сеть супермаркетов", "address": "Санкт-Петербург, Большой Сампсониевский проспект, 35" }, "geometry": { "type": "Point", "coordinates": [ 3377759.962053907103837, 8392394.020439296960831 ] } },
{ "type": "Feature", "properties": { "title": "Народная семьЯ, сеть универсамов", "address": "Санкт-Петербург, 1-я линия В.О., 44" }, "geometry": { "type": "Point", "coordinates": [ 3371440.020603102166206, 8387479.796381091699004 ] } },
{ "type": "Feature", "properties": { "title": "Пятёрочка, сеть супермаркетов", "address": "Санкт-Петербург, Морская набережная, 39 к3" }, "geometry": { "type": "Point", "coordinates": [ 3365057.962876432575285, 8390877.514158932492137 ] } },
{ "type": "Feature", "properties": { "title": "Магазин продуктов", "address": "Санкт-Петербург, Чапаева, 11" }, "geometry": { "type": "Point", "coordinates": [ 3376522.979872212745249, 8390882.406330194324255 ] } },
{ "type": "Feature", "properties": { "title": "Гранд Паркет, магазин", "address": "Санкт-Петербург, Железноводская, 3" }, "geometry": { "type": "Point", "coordinates": [ 3368088.969971749465913, 8389353.760889060795307 ] } },
{ "type": "Feature", "properties": { "title": "Естный, сеть супермаркетов", "address": "Санкт-Петербург, Ропшинская, 4" }, "geometry": { "type": "Point", "coordinates": [ 3372653.95965020172298, 8390328.499757889658213 ] } },
{ "type": "Feature", "properties": { "title": "Продуктовый магазин", "address": "Санкт-Петербург, Савушкина, 7" }, "geometry": { "type": "Point", "coordinates": [ 3372717.968357408884913, 8396727.312975652515888 ] } },
{ "type": "Feature", "properties": { "title": "Комплексный центр социального обслуживания населения Петроградского района", "address": "Санкт-Петербург, Куйбышева, 1" }, "geometry": { "type": "Point", "coordinates": [ 3375982.969022375065833, 8389620.333823025226593 ] } },
{ "type": "Feature", "properties": { "title": "Администрация Петроградского района Санкт-Петербурга", "address": "Санкт-Петербург, Большая Монетная, 11" }, "geometry": { "type": "Point", "coordinates": [ 3374714.038146821316332, 8391075.64969346858561 ] } },
{ "type": "Feature", "properties": { "title": "Школа-интернат №20 Петроградского района", "address": "Санкт-Петербург, Песочная набережная, 14 лит Б" }, "geometry": { "type": "Point", "coordinates": [ 3372541.972242462448776, 8393721.302974442020059 ] } },
{ "type": "Feature", "properties": { "title": "Stop Express, сеть магазинов", "address": "Санкт-Петербург, Чапаева, 5" }, "geometry": { "type": "Point", "coordinates": [ 3376628.956027447711676, 8390563.9772306419909 ] } },
{ "type": "Feature", "properties": { "title": "Rusalut, магазин", "address": "Санкт-Петербург, Академика Павлова, 5" }, "geometry": { "type": "Point", "coordinates": [ 3374950.035467304289341, 8394725.988193351775408 ] } },
{ "type": "Feature", "properties": { "title": "РумДом, магазин", "address": "Санкт-Петербург, Красногвардейский переулок, 23 лит Е" }, "geometry": { "type": "Point", "coordinates": [ 3375190.040289454627782, 8396190.32423391006887 ] } },
{ "type": "Feature", "properties": { "title": "Полюс, продовольственный магазин", "address": "Санкт-Петербург, Малый проспект П.С., 67" }, "geometry": { "type": "Point", "coordinates": [ 3373359.947860811371356, 8391770.834015404805541 ] } },
{ "type": "Feature", "properties": { "title": "Администрация Петроградского района Санкт-Петербурга", "address": "Санкт-Петербург, Большая Монетная, 17-19к" }, "geometry": { "type": "Point", "coordinates": [ 3375099.982821400742978, 8391140.806538507342339 ] } },
{ "type": "Feature", "properties": { "title": "Ветеринарная станция Выборгского, Калининского и Петроградского районов", "address": "Санкт-Петербург, Васенко, 3 к3" }, "geometry": { "type": "Point", "coordinates": [ 3382996.987498275469989, 8392883.799226457253098 ] } },
{ "type": "Feature", "properties": { "title": "Весна, ООО, магазин", "address": "Санкт-Петербург, Сытнинская, 14" }, "geometry": { "type": "Point", "coordinates": [ 3373992.019929536618292, 8390381.642741482704878 ] } },
{ "type": "Feature", "properties": { "title": "Продовольственный магазин", "address": "Санкт-Петербург, Стародеревенская, 6 к1" }, "geometry": { "type": "Point", "coordinates": [ 3366529.04994726460427, 8396770.264864237979054 ] } },
{ "type": "Feature", "properties": { "title": "Полушка, сеть универсамов", "address": "Санкт-Петербург, Левашовский проспект, 13а" }, "geometry": { "type": "Point", "coordinates": [ 3371508.036811976693571, 8392342.8646783772856 ] } },
{ "type": "Feature", "properties": { "title": "Raй shop exclusive, магазин", "address": "Санкт-Петербург, Большая Зеленина, 29" }, "geometry": { "type": "Point", "coordinates": [ 3371497.016182387247682, 8391779.952351810410619 ] } },
{ "type": "Feature", "properties": { "title": "Лавка Слово, магазин", "address": "Санкт-Петербург, Каменноостровский проспект, 10 лит Б" }, "geometry": { "type": "Point", "coordinates": [ 3374770.031850690953434, 8390562.865421304479241 ] } },
{ "type": "Feature", "properties": { "title": "ALLIGATOR, магазин", "address": "Санкт-Петербург, Набережная Чёрной речки, 1 лит А" }, "geometry": { "type": "Point", "coordinates": [ 3375155.97652527038008, 8395600.416125111281872 ] } },
{ "type": "Feature", "properties": { "title": "Естный, сеть супермаркетов", "address": "Санкт-Петербург, Савушкина, 42" }, "geometry": { "type": "Point", "coordinates": [ 3371172.965144689660519, 8396351.661536311730742 ] } },
{ "type": "Feature", "properties": { "title": "Чайная Провинция, магазин", "address": "Санкт-Петербург, Большая Разночинная, 16" }, "geometry": { "type": "Point", "coordinates": [ 3371877.951479881070554, 8390678.049760445952415 ] } },
{ "type": "Feature", "properties": { "title": "Продуктовый магазин", "address": "Санкт-Петербург, Савушкина, 54 лит Б" }, "geometry": { "type": "Point", "coordinates": [ 3370646.980550690554082, 8396275.554396111518145 ] } },
{ "type": "Feature", "properties": { "title": "Продуктовый магазин", "address": "Санкт-Петербург, Пионерская, 31" }, "geometry": { "type": "Point", "coordinates": [ 3371740.02663078950718, 8390496.824247544631362 ] } },
{ "type": "Feature", "properties": { "title": "Реалъ, сеть универсамов", "address": "Санкт-Петербург, Гатчинская, 18" }, "geometry": { "type": "Point", "coordinates": [ 3372888.955095266457647, 8391293.137929668650031 ] } },
{ "type": "Feature", "properties": { "title": "ДИКСИ, сеть супермаркетов", "address": "Санкт-Петербург, Большая Зеленина, 14\/18" }, "geometry": { "type": "Point", "coordinates": [ 3371977.025826687924564, 8391205.963959768414497 ] } },
{ "type": "Feature", "properties": { "title": "ДИКСИ, сеть супермаркетов", "address": "Санкт-Петербург, Саблинская, 13\/15" }, "geometry": { "type": "Point", "coordinates": [ 3373773.054491146933287, 8390226.217269960790873 ] } },
{ "type": "Feature", "properties": { "title": "Мировые судьи Петроградского района", "address": "Санкт-Петербург, Большая Разночинная, 23Б" }, "geometry": { "type": "Point", "coordinates": [ 3371633.048600136302412, 8391127.908550744876266 ] } },
{ "type": "Feature", "properties": { "title": "Администрация Петроградского района Санкт-Петербурга", "address": "Санкт-Петербург, Большая Монетная, 17-19к" }, "geometry": { "type": "Point", "coordinates": [ 3375099.982821400742978, 8391140.806538507342339 ] } },
{ "type": "Feature", "properties": { "title": "Азбука здоровья, эко-лавка", "address": "Санкт-Петербург, Ропшинская, 30" }, "geometry": { "type": "Point", "coordinates": [ 3372030.013904305174947, 8390843.269051039591432 ] } },
{ "type": "Feature", "properties": { "title": "Фруктовая лавка, сеть магазинов", "address": "Санкт-Петербург, Куйбышева, 33\/8Б" }, "geometry": { "type": "Point", "coordinates": [ 3376878.979603769257665, 8390289.365420894697309 ] } },
{ "type": "Feature", "properties": { "title": "Естный, сеть супермаркетов", "address": "Санкт-Петербург, Большой проспект П.С., 23\/1" }, "geometry": { "type": "Point", "coordinates": [ 3372673.997158544138074, 8390049.005103128030896 ] } },
{ "type": "Feature", "properties": { "title": "Молодежный консультативно-диагностический медицинский центр Петроградского района, Городская поликлиника №30", "address": "Санкт-Петербург, Гатчинская, 27-29" }, "geometry": { "type": "Point", "coordinates": [ 3372722.977734494488686, 8391507.519120424985886 ] } },
{ "type": "Feature", "properties": { "title": "Администрация Петроградского района Санкт-Петербурга", "address": "Санкт-Петербург, Большая Монетная, 17-19к" }, "geometry": { "type": "Point", "coordinates": [ 3375099.982821400742978, 8391140.806538507342339 ] } },
{ "type": "Feature", "properties": { "title": "Пятёрочка, сеть супермаркетов", "address": "Санкт-Петербург, Морская набережная, 39 к3" }, "geometry": { "type": "Point", "coordinates": [ 3365057.962876432575285, 8390877.514158932492137 ] } },
{ "type": "Feature", "properties": { "title": "Нетто, сеть универсамов", "address": "Санкт-Петербург, Малый проспект П.С., 66" }, "geometry": { "type": "Point", "coordinates": [ 3373093.003721890039742, 8391548.661452433094382 ] } },
{ "type": "Feature", "properties": { "title": "Берег, ООО, продуктовый магазин", "address": "Санкт-Петербург, Чкаловский проспект, 60" }, "geometry": { "type": "Point", "coordinates": [ 3373276.012964755296707, 8392756.569271989166737 ] } },
{ "type": "Feature", "properties": { "title": "Меркурий, ООО, сеть магазинов", "address": "Санкт-Петербург, Лизы Чайкиной, 18" }, "geometry": { "type": "Point", "coordinates": [ 3373255.975456412881613, 8389825.550416363403201 ] } },
{ "type": "Feature", "properties": { "title": "Толстая мама, супермаркет", "address": "Санкт-Петербург, Савушкина, 13" }, "geometry": { "type": "Point", "coordinates": [ 3372237.958713107742369, 8396646.083404757082462 ] } },
{ "type": "Feature", "properties": { "title": "Мини-маркет", "address": "Санкт-Петербург, Барочная, 2а" }, "geometry": { "type": "Point", "coordinates": [ 3371393.043777985498309, 8391885.147634202614427 ] } },
{ "type": "Feature", "properties": { "title": "Лацис, ООО, продуктовый магазин", "address": "Санкт-Петербург, Красного Курсанта, 43" }, "geometry": { "type": "Point", "coordinates": [ 3370282.965815796051174, 8391260.002804284915328 ] } },
{ "type": "Feature", "properties": { "title": "Продуктовый магазин, ИП Казымов У.Г.", "address": "Санкт-Петербург, Школьная, 56" }, "geometry": { "type": "Point", "coordinates": [ 3369308.029715429060161, 8396829.463214438408613 ] } },
{ "type": "Feature", "properties": { "title": "Естный, сеть супермаркетов", "address": "Санкт-Петербург, Глухая Зеленина, 6" }, "geometry": { "type": "Point", "coordinates": [ 3371081.015245293267071, 8391759.936506219208241 ] } },
{ "type": "Feature", "properties": { "title": "Питерские пекарни, магазин", "address": "Санкт-Петербург, Саблинская, 13\/15" }, "geometry": { "type": "Point", "coordinates": [ 3373773.054491146933287, 8390226.217269960790873 ] } },
{ "type": "Feature", "properties": { "title": "ДИКСИ, сеть супермаркетов", "address": "Санкт-Петербург, Дибуновская, 45" }, "geometry": { "type": "Point", "coordinates": [ 3369110.994216724764556, 8396477.840896058827639 ] } },
{ "type": "Feature", "properties": { "title": "Трикотажная Радуга, магазин", "address": "Санкт-Петербург, 6-я линия В.О., 55" }, "geometry": { "type": "Point", "coordinates": [ 3370036.949741141870618, 8388142.854132898151875 ] } },
{ "type": "Feature", "properties": { "title": "Здоровое питание, ООО, магазин", "address": "Санкт-Петербург, Карельский переулок, 3Б" }, "geometry": { "type": "Point", "coordinates": [ 3372463.046723492443562, 8396818.335668694227934 ] } },
{ "type": "Feature", "properties": { "title": "Продуктовый магазин, ИП Арзуманян К.В.", "address": "Санкт-Петербург, Кронверкский проспект, 63" }, "geometry": { "type": "Point", "coordinates": [ 3373721.958844872191548, 8389547.186494886875153 ] } },
{ "type": "Feature", "properties": { "title": "ЛАВКА ВОСТОКА, магазин", "address": "Санкт-Петербург, Сытнинская площадь, 3 к2" }, "geometry": { "type": "Point", "coordinates": [ 3374216.996620429679751, 8390210.207965578883886 ] } },
{ "type": "Feature", "properties": { "title": "New Balance, магазин", "address": "Санкт-Петербург, Каменноостровский проспект, 31\/33" }, "geometry": { "type": "Point", "coordinates": [ 3374401.007738710846752, 8391944.306740406900644 ] } },
{ "type": "Feature", "properties": { "title": "Перекресток, сеть супермаркетов", "address": "Санкт-Петербург, Аптекарский проспект, 18" }, "geometry": { "type": "Point", "coordinates": [ 3375070.037878378294408, 8394096.820297483354807 ] } },
{ "type": "Feature", "properties": { "title": "Санкт-Петербургские сувениры, магазин", "address": "Санкт-Петербург, Петропавловская Крепость, 6г" }, "geometry": { "type": "Point", "coordinates": [ 3374578.005729072261602, 8388475.405728792771697 ] } },
{ "type": "Feature", "properties": { "title": "Беларусачка, сеть продуктовых магазинов", "address": "Санкт-Петербург, Большая Зеленина, 16" }, "geometry": { "type": "Point", "coordinates": [ 3371874.055297704879194, 8391316.26589072868228 ] } },
{ "type": "Feature", "properties": { "title": "Мировые судьи Петроградского района", "address": "Санкт-Петербург, Большая Разночинная, 23Б" }, "geometry": { "type": "Point", "coordinates": [ 3371633.048600136302412, 8391127.908550744876266 ] } },
{ "type": "Feature", "properties": { "title": "Аквариумный Мир, магазин", "address": "Санкт-Петербург, Большая Зеленина, 33" }, "geometry": { "type": "Point", "coordinates": [ 3371336.048198700882494, 8391905.163819968700409 ] } },
{ "type": "Feature", "properties": { "title": "Мини-маркет, ИП Беляков В.В.", "address": "Санкт-Петербург, Савушкина, 15" }, "geometry": { "type": "Point", "coordinates": [ 3372008.974520544521511, 8396585.996353378519416 ] } },
{ "type": "Feature", "properties": { "title": "Универсам", "address": "Санкт-Петербург, Сестрорецкая, 7" }, "geometry": { "type": "Point", "coordinates": [ 3371754.052886628080159, 8396855.501737177371979 ] } },
{ "type": "Feature", "properties": { "title": "Магазин", "address": "Санкт-Петербург, Карельский переулок, 2" }, "geometry": { "type": "Point", "coordinates": [ 3372419.966080555226654, 8396674.124196486547589 ] } },
{ "type": "Feature", "properties": { "title": "Ермолино, сеть магазинов полуфабрикатов", "address": "Санкт-Петербург, Савушкина, 20" }, "geometry": { "type": "Point", "coordinates": [ 3372186.974386324174702, 8396499.872434491291642 ] } },
{ "type": "Feature", "properties": { "title": "Piccolo, магазин", "address": "Санкт-Петербург, Фокина, 1" }, "geometry": { "type": "Point", "coordinates": [ 3377501.032918323297054, 8392364.883853664621711 ] } },
{ "type": "Feature", "properties": { "title": "Продуктовый магазин, ИП Дегтярева Е.Н.", "address": "Санкт-Петербург, Введенская, 14" }, "geometry": { "type": "Point", "coordinates": [ 3373548.968356177676469, 8389937.83277009613812 ] } },
{ "type": "Feature", "properties": { "title": "Администрация Петроградского района Санкт-Петербурга", "address": "Санкт-Петербург, Большая Монетная, 17-19к" }, "geometry": { "type": "Point", "coordinates": [ 3375099.982821400742978, 8391140.806538507342339 ] } },
{ "type": "Feature", "properties": { "title": "Продуктовый магазин, ИП Худоев О.К.", "address": "Санкт-Петербург, Набережная реки Карповки, 5 лит П" }, "geometry": { "type": "Point", "coordinates": [ 3374911.964201452676207, 8392688.506597077473998 ] } },
{ "type": "Feature", "properties": { "title": "Полушка, сеть универсамов", "address": "Санкт-Петербург, Малая Посадская, 13" }, "geometry": { "type": "Point", "coordinates": [ 3375985.974648626986891, 8390167.294307375326753 ] } },
{ "type": "Feature", "properties": { "title": "New Balance, магазин", "address": "Санкт-Петербург, Каменноостровский проспект, 31\/33" }, "geometry": { "type": "Point", "coordinates": [ 3374401.007738710846752, 8391944.306740406900644 ] } },
{ "type": "Feature", "properties": { "title": "ДОМ ПОСУДЫ, ООО, магазин", "address": "Санкт-Петербург, Малый проспект П.С., 42" }, "geometry": { "type": "Point", "coordinates": [ 3372464.048598907887936, 8390644.917401185259223 ] } },
{ "type": "Feature", "properties": { "title": "Перекресток, сеть супермаркетов", "address": "Санкт-Петербург, Каменноостровский проспект, 11" }, "geometry": { "type": "Point", "coordinates": [ 3375092.969693481456488, 8390532.84663257189095 ] } },
{ "type": "Feature", "properties": { "title": "Реалъ, сеть универсамов", "address": "Санкт-Петербург, Большой проспект П.С., 64" }, "geometry": { "type": "Point", "coordinates": [ 3373585.035871196072549, 8391297.140840815380216 ] } },
{ "type": "Feature", "properties": { "title": "Нева, ООО, продуктовый магазин", "address": "Санкт-Петербург, Средний проспект В.О., 7" }, "geometry": { "type": "Point", "coordinates": [ 3371335.046323282644153, 8387561.814035983756185 ] } },
{ "type": "Feature", "properties": { "title": "Беларусачка, сеть продуктовых магазинов", "address": "Санкт-Петербург, Малый проспект П.С., 58" }, "geometry": { "type": "Point", "coordinates": [ 3372868.027030996512622, 8391249.106050649657845 ] } },
{ "type": "Feature", "properties": { "title": "Естный, сеть супермаркетов", "address": "Санкт-Петербург, Льва Толстого, 4" }, "geometry": { "type": "Point", "coordinates": [ 3374543.051408963743597, 8392104.439035067334771 ] } },
{ "type": "Feature", "properties": { "title": "Продуктовый магазин", "address": "Санкт-Петербург, Мичуринская, 10а" }, "geometry": { "type": "Point", "coordinates": [ 3352692.037241660989821, 8353169.432164655998349 ] } },
{ "type": "Feature", "properties": { "title": "Меркурий, ООО, сеть магазинов", "address": "Санкт-Петербург, Лизы Чайкиной, 17" }, "geometry": { "type": "Point", "coordinates": [ 3373259.982958080247045, 8389719.495190231129527 ] } },
{ "type": "Feature", "properties": { "title": "Омега плюс, магазин", "address": "Санкт-Петербург, Яблочкова, 5" }, "geometry": { "type": "Point", "coordinates": [ 3372994.040694574359804, 8388885.113924786448479 ] } },
{ "type": "Feature", "properties": { "title": "Жилкомсервис №2 Петроградского района", "address": "Санкт-Петербург, Чапыгина, 11" }, "geometry": { "type": "Point", "coordinates": [ 3374175.029172401875257, 8393820.297093242406845 ] } },
{ "type": "Feature", "properties": { "title": "Фа-Маркет, мини-маркет", "address": "Санкт-Петербург, Липовая аллея, 12" }, "geometry": { "type": "Point", "coordinates": [ 3368011.04632819769904, 8396823.454337645322084 ] } },
{ "type": "Feature", "properties": { "title": "Студия мировой сантехники, магазин", "address": "Санкт-Петербург, Александра Матросова, 10" }, "geometry": { "type": "Point", "coordinates": [ 3376717.009744665119797, 8394928.23214397393167 ] } },
{ "type": "Feature", "properties": { "title": "Семейный универсам", "address": "Санкт-Петербург, Подрезова, 2" }, "geometry": { "type": "Point", "coordinates": [ 3373726.968221957795322, 8391527.534280270338058 ] } },
{ "type": "Feature", "properties": { "title": "Лабиринт, ООО, универсам", "address": "Санкт-Петербург, Куйбышева, 11" }, "geometry": { "type": "Point", "coordinates": [ 3376242.009477449581027, 8389855.788664067164063 ] } },
{ "type": "Feature", "properties": { "title": "Stop Express, сеть магазинов", "address": "Санкт-Петербург, Петроградская набережная, 22" }, "geometry": { "type": "Point", "coordinates": [ 3376799.052209381014109, 8390900.41844330355525 ] } },
{ "type": "Feature", "properties": { "title": "Сатурн, ООО, мини-маркет", "address": "Санкт-Петербург, Чкаловский проспект, 21" }, "geometry": { "type": "Point", "coordinates": [ 3372620.007205508649349, 8391813.089815715327859 ] } },
{ "type": "Feature", "properties": { "title": "Май, гастроном", "address": "Санкт-Петербург, Средний проспект В.О., 16" }, "geometry": { "type": "Point", "coordinates": [ 3371265.026363574434072, 8387427.563391048461199 ] } },
{ "type": "Feature", "properties": { "title": "Продовольственный магазин", "address": "Санкт-Петербург, Школьная, 68" }, "geometry": { "type": "Point", "coordinates": [ 3368602.041504819411784, 8396844.374152095988393 ] } },
{ "type": "Feature", "properties": { "title": "Верный, сеть супермаркетов", "address": "Санкт-Петербург, Мира, 3" }, "geometry": { "type": "Point", "coordinates": [ 3374485.944510187488049, 8390618.01136671192944 ] } },
{ "type": "Feature", "properties": { "title": "Продовольственный магазин", "address": "Санкт-Петербург, Профессора Попова, 38 к1" }, "geometry": { "type": "Point", "coordinates": [ 3372470.950407338794321, 8393328.454035326838493 ] } },
{ "type": "Feature", "properties": { "title": "Дионис, ООО, продовольственный магазин", "address": "Санкт-Петербург, Большая Пушкарская, 60" }, "geometry": { "type": "Point", "coordinates": [ 3374240.039755024481565, 8391684.766371700912714 ] } },
{ "type": "Feature", "properties": { "title": "Продуктовый магазин, ИП Хасанова М.Э.", "address": "Санкт-Петербург, Малая Посадская, 13 к1" }, "geometry": { "type": "Point", "coordinates": [ 3375993.989651964511722, 8390202.203326430171728 ] } },
{ "type": "Feature", "properties": { "title": "Естный, сеть супермаркетов", "address": "Санкт-Петербург, Профессора Попова, 38 лит И" }, "geometry": { "type": "Point", "coordinates": [ 3372628.022208846174181, 8393301.538198741152883 ] } },
{ "type": "Feature", "properties": { "title": "SPAR, сеть супермаркетов", "address": "Санкт-Петербург, Савушкина, 7 к3" }, "geometry": { "type": "Point", "coordinates": [ 3372697.040293138939887, 8396826.347499933093786 ] } },
{ "type": "Feature", "properties": { "title": "Агентство занятости населения Петроградского района", "address": "Санкт-Петербург, Большой проспект П.С., 74" }, "geometry": { "type": "Point", "coordinates": [ 3373807.00693583721295, 8391552.664502404630184 ] } },
{ "type": "Feature", "properties": { "title": "Продовольственный магазин", "address": "Санкт-Петербург, Съезжинская, 8" }, "geometry": { "type": "Point", "coordinates": [ 3372663.978404372930527, 8389598.322848511859775 ] } },
{ "type": "Feature", "properties": { "title": "ДИКСИ, сеть супермаркетов", "address": "Санкт-Петербург, Дибуновская, 45" }, "geometry": { "type": "Point", "coordinates": [ 3369110.994216724764556, 8396477.840896058827639 ] } },
{ "type": "Feature", "properties": { "title": "Продуктовый магазин", "address": "Санкт-Петербург, Школьная, 64" }, "geometry": { "type": "Point", "coordinates": [ 3368905.053158755879849, 8396842.371188564226031 ] } },
{ "type": "Feature", "properties": { "title": "Жилкомсервис №2 Петроградского района", "address": "Санкт-Петербург, Чкаловский проспект, 56" }, "geometry": { "type": "Point", "coordinates": [ 3373210.000506714452058, 8392672.491941414773464 ] } },
{ "type": "Feature", "properties": { "title": "Век, ООО, продовольственный магазин", "address": "Санкт-Петербург, Каменноостровский проспект, 50" }, "geometry": { "type": "Point", "coordinates": [ 3373719.955094038508832, 8393221.45860531181097 ] } },
{ "type": "Feature", "properties": { "title": "Продуктовый магазин", "address": "Санкт-Петербург, Малая Посадская, 20" }, "geometry": { "type": "Point", "coordinates": [ 3375737.954823138657957, 8390254.455988872796297 ] } },
{ "type": "Feature", "properties": { "title": "Естный, сеть супермаркетов", "address": "Санкт-Петербург, Дивенская, 5" }, "geometry": { "type": "Point", "coordinates": [ 3375314.050202198792249, 8390808.35699450224638 ] } },
{ "type": "Feature", "properties": { "title": "О`КЕЙ, сеть гипермаркетов", "address": "Санкт-Петербург, Академика Павлова, 5" }, "geometry": { "type": "Point", "coordinates": [ 3374950.035467304289341, 8394725.988193351775408 ] } },
{ "type": "Feature", "properties": { "title": "ДИКСИ, сеть супермаркетов", "address": "Санкт-Петербург, Большой Сампсониевский проспект, 62" }, "geometry": { "type": "Point", "coordinates": [ 3377262.029971588402987, 8394270.125328021124005 ] } },
{ "type": "Feature", "properties": { "title": "Лэнд, сеть супермаркетов", "address": "Санкт-Петербург, Вязовая, 10" }, "geometry": { "type": "Point", "coordinates": [ 3370042.960993645712733, 8392430.052101502195001 ] } },
{ "type": "Feature", "properties": { "title": "ДИКСИ, сеть супермаркетов", "address": "Санкт-Петербург, Большая Зеленина, 14\/18" }, "geometry": { "type": "Point", "coordinates": [ 3371977.025826687924564, 8391205.963959768414497 ] } },
{ "type": "Feature", "properties": { "title": "Гастроном и Я, магазин", "address": "Санкт-Петербург, Большая Пушкарская, 11" }, "geometry": { "type": "Point", "coordinates": [ 3372927.026361118070781, 8389952.952108841389418 ] } },
{ "type": "Feature", "properties": { "title": "Бука, продовольственный магазин", "address": "Санкт-Петербург, Яблочкова, 22" }, "geometry": { "type": "Point", "coordinates": [ 3372673.997158544138074, 8388873.109128450974822 ] } },
{ "type": "Feature", "properties": { "title": "Мясная держава, продуктовый магазин", "address": "Санкт-Петербург, Саблинская, 13\/15" }, "geometry": { "type": "Point", "coordinates": [ 3373773.054491146933287, 8390226.217269960790873 ] } },
{ "type": "Feature", "properties": { "title": "Продуктовый магазин, ИП Фролова Н.В.", "address": "Санкт-Петербург, 5-я линия В.О., 48" }, "geometry": { "type": "Point", "coordinates": [ 3370661.006806529592723, 8387543.810082316398621 ] } },
{ "type": "Feature", "properties": { "title": "Народная семьЯ, сеть универсамов", "address": "Санкт-Петербург, Малая Посадская, 3" }, "geometry": { "type": "Point", "coordinates": [ 3375304.031448027584702, 8390313.379648501053452 ] } },
{ "type": "Feature", "properties": { "title": "Вкусный чай, магазин", "address": "Санкт-Петербург, Малый проспект В.О., 7" }, "geometry": { "type": "Point", "coordinates": [ 3370487.014442420098931, 8388193.980741512030363 ] } },
{ "type": "Feature", "properties": { "title": "Продуктовый магазин, ИП Голуб П.Б.", "address": "Санкт-Петербург, Чапыгина, 1" }, "geometry": { "type": "Point", "coordinates": [ 3373667.96889183903113, 8393626.9817257784307 ] } },
{ "type": "Feature", "properties": { "title": "Свои книги, магазин", "address": "Санкт-Петербург, Репина, 41" }, "geometry": { "type": "Point", "coordinates": [ 3371408.962465169839561, 8387346.436289545148611 ] } },
{ "type": "Feature", "properties": { "title": "ДИКСИ, сеть супермаркетов", "address": "Санкт-Петербург, 6-я линия В.О., 55" }, "geometry": { "type": "Point", "coordinates": [ 3370036.949741141870618, 8388142.854132898151875 ] } },
{ "type": "Feature", "properties": { "title": "ЕвроПосуда, магазин", "address": "Санкт-Петербург, Большой проспект П.С., 28" }, "geometry": { "type": "Point", "coordinates": [ 3372663.978404372930527, 8390148.172239663079381 ] } },
{ "type": "Feature", "properties": { "title": "Балтэкс Сити, ООО, продуктовый магазин", "address": "Санкт-Петербург, Воскова, 5" }, "geometry": { "type": "Point", "coordinates": [ 3373449.003453446552157, 8390267.352447673678398 ] } },
{ "type": "Feature", "properties": { "title": "Эко, ООО, продуктовый магазин", "address": "Санкт-Петербург, Набережная Чёрной речки, 51 лит Б" }, "geometry": { "type": "Point", "coordinates": [ 3373526.036541077308357, 8396772.26780816167593 ] } },
{ "type": "Feature", "properties": { "title": "ДИКСИ, сеть супермаркетов", "address": "Санкт-Петербург, Каменноостровский проспект, 26-28" }, "geometry": { "type": "Point", "coordinates": [ 3374528.023277706932276, 8391470.380023440346122 ] } },
{ "type": "Feature", "properties": { "title": "Верный, сеть супермаркетов", "address": "Санкт-Петербург, Большая Пушкарская, 22" }, "geometry": { "type": "Point", "coordinates": [ 3373230.038015057332814, 8390458.800809968262911 ] } },
{ "type": "Feature", "properties": { "title": "SPAR, сеть супермаркетов", "address": "Санкт-Петербург, Чкаловский проспект, 15" }, "geometry": { "type": "Point", "coordinates": [ 3372313.989925317466259, 8391378.311452589929104 ] } },
{ "type": "Feature", "properties": { "title": "Лента, сеть гипермаркетов", "address": "Санкт-Петербург, Уральская, 29 к1" }, "geometry": { "type": "Point", "coordinates": [ 3366780.965954928658903, 8390019.8777897041291 ] } },
{ "type": "Feature", "properties": { "title": "Успех, ООО, продуктовая лавка", "address": "Санкт-Петербург, Уральская, 13м" }, "geometry": { "type": "Point", "coordinates": [ 3369179.010425599291921, 8389448.916759459301829 ] } },
{ "type": "Feature", "properties": { "title": "Реалъ, сеть универсамов", "address": "Санкт-Петербург, Константиновский проспект, 20 лит А" }, "geometry": { "type": "Point", "coordinates": [ 3369625.958181133959442, 8393602.956695040687919 ] } },
{ "type": "Feature", "properties": { "title": "Продуктовый магазин, ИП Герберова Ю.В.", "address": "Санкт-Петербург, Блохина, 27" }, "geometry": { "type": "Point", "coordinates": [ 3372384.009885028470308, 8389180.571465572342277 ] } },
{ "type": "Feature", "properties": { "title": "Магазин", "address": "Санкт-Петербург, 6-я линия В.О., 55" }, "geometry": { "type": "Point", "coordinates": [ 3370036.949741141870618, 8388142.854132898151875 ] } },
{ "type": "Feature", "properties": { "title": "ДИКСИ, сеть супермаркетов", "address": "Санкт-Петербург, Большая Монетная, 10" }, "geometry": { "type": "Point", "coordinates": [ 3374631.995682108215988, 8391105.893072068691254 ] } },
{ "type": "Feature", "properties": { "title": "Пятёрочка, сеть супермаркетов", "address": "Санкт-Петербург, Саблинская, 4" }, "geometry": { "type": "Point", "coordinates": [ 3373654.944511415902525, 8390676.048472771421075 ] } },
{ "type": "Feature", "properties": { "title": "Пятёрочка, сеть супермаркетов", "address": "Санкт-Петербург, Саблинская, 4" }, "geometry": { "type": "Point", "coordinates": [ 3373654.944511415902525, 8390676.048472771421075 ] } },
{ "type": "Feature", "properties": { "title": "ДИКСИ, сеть супермаркетов", "address": "Санкт-Петербург, Большая Пушкарская, 30" }, "geometry": { "type": "Point", "coordinates": [ 3373468.039086373988539, 8390736.087339436635375 ] } },
{ "type": "Feature", "properties": { "title": "Мини-маркет", "address": "Санкт-Петербург, Малый проспект В.О., 15" }, "geometry": { "type": "Point", "coordinates": [ 3370237.992741516325623, 8388067.720890899188817 ] } },
{ "type": "Feature", "properties": { "title": "Европа, ООО, мини-маркет", "address": "Санкт-Петербург, Мира, 21" }, "geometry": { "type": "Point", "coordinates": [ 3347377.97870966186747, 8339044.352562882937491 ] } },
{ "type": "Feature", "properties": { "title": "Лайм, сеть супермаркетов", "address": "Санкт-Петербург, Малая Посадская, 13" }, "geometry": { "type": "Point", "coordinates": [ 3375985.974648626986891, 8390167.294307375326753 ] } },
{ "type": "Feature", "properties": { "title": "SPAR, сеть супермаркетов", "address": "Санкт-Петербург, Медиков проспект, 10 к1" }, "geometry": { "type": "Point", "coordinates": [ 3374798.974918295629323, 8394108.833608396351337 ] } },
{ "type": "Feature", "properties": { "title": "Гранд, ООО, продуктовый магазин", "address": "Санкт-Петербург, Большая Зеленина, 28" }, "geometry": { "type": "Point", "coordinates": [ 3371407.960589751601219, 8391754.821354404091835 ] } },
{ "type": "Feature", "properties": { "title": "Администрация Петроградского района Санкт-Петербурга", "address": "Санкт-Петербург, Большая Монетная, 17-19к" }, "geometry": { "type": "Point", "coordinates": [ 3375099.982821400742978, 8391140.806538507342339 ] } },
{ "type": "Feature", "properties": { "title": "ДИКСИ, сеть супермаркетов", "address": "Санкт-Петербург, Каменноостровский проспект, 64 к1" }, "geometry": { "type": "Point", "coordinates": [ 3373278.016715588979423, 8394107.943732839077711 ] } },
{ "type": "Feature", "properties": { "title": "Медтехника+ортопедия, магазин", "address": "Санкт-Петербург, Большой Сампсониевский проспект, 40" }, "geometry": { "type": "Point", "coordinates": [ 3377512.053547909948975, 8393104.23254806548357 ] } },
{ "type": "Feature", "properties": { "title": "Отдел по делам несовершеннолетних Петроградского района", "address": "Санкт-Петербург, Большая Монетная, 31\/33" }, "geometry": { "type": "Point", "coordinates": [ 3375971.948392785154283, 8391525.532761843875051 ] } },
{ "type": "Feature", "properties": { "title": "24 часа, продуктовый магазин", "address": "Санкт-Петербург, Большой Сампсониевский проспект, 18" }, "geometry": { "type": "Point", "coordinates": [ 3377994.957498971838504, 8390815.250444790348411 ] } },
{ "type": "Feature", "properties": { "title": "Магазин", "address": "Санкт-Петербург, Каменноостровский проспект, 37" }, "geometry": { "type": "Point", "coordinates": [ 3374250.949065122753382, 8392269.690316068008542 ] } },
{ "type": "Feature", "properties": { "title": "Гастроном №13", "address": "Санкт-Петербург, Большая Зеленина, 13\/13" }, "geometry": { "type": "Point", "coordinates": [ 3372194.989389661699533, 8391107.894476503133774 ] } },
{ "type": "Feature", "properties": { "title": "43 отдел полиции Управления МВД Петроградского района", "address": "Санкт-Петербург, Большая Монетная, 27" }, "geometry": { "type": "Point", "coordinates": [ 3375798.957904093898833, 8391468.378520533442497 ] } },
{ "type": "Feature", "properties": { "title": "Естный, сеть супермаркетов", "address": "Санкт-Петербург, Льва Толстого, 4" }, "geometry": { "type": "Point", "coordinates": [ 3374543.051408963743597, 8392104.439035067334771 ] } },
{ "type": "Feature", "properties": { "title": "Шанс СПб, ООО, продуктовый магазин", "address": "Санкт-Петербург, Каменноостровский проспект, 55" }, "geometry": { "type": "Point", "coordinates": [ 3373736.986976129002869, 8393433.671430993825197 ] } },
{ "type": "Feature", "properties": { "title": "Продуктовый магазин", "address": "Санкт-Петербург, Малая Посадская, 13 к3" }, "geometry": { "type": "Point", "coordinates": [ 3376015.029035722836852, 8390216.211450645700097 ] } },
{ "type": "Feature", "properties": { "title": "ALLIGATOR, магазин", "address": "Санкт-Петербург, Набережная Чёрной речки, 1 лит А" }, "geometry": { "type": "Point", "coordinates": [ 3375155.97652527038008, 8395600.416125111281872 ] } },
{ "type": "Feature", "properties": { "title": "Продуктовый магазин", "address": "Санкт-Петербург, Большая Зеленина, 20" }, "geometry": { "type": "Point", "coordinates": [ 3371626.035472216550261, 8391584.688980491831899 ] } },
{ "type": "Feature", "properties": { "title": "Перекресток, сеть супермаркетов", "address": "Санкт-Петербург, Кронверкская, 5" }, "geometry": { "type": "Point", "coordinates": [ 3374445.980812990572304, 8390430.561307867988944 ] } },
{ "type": "Feature", "properties": { "title": "Продовольственный магазин", "address": "Санкт-Петербург, Динамо проспект, 44 лит Е" }, "geometry": { "type": "Point", "coordinates": [ 3369634.975059886928648, 8392632.455454578623176 ] } },
{ "type": "Feature", "properties": { "title": "Белорусский гостинец, сеть продовольственных магазинов", "address": "Санкт-Петербург, Карельский переулок, 3 к3" }, "geometry": { "type": "Point", "coordinates": [ 3372507.017922354396433, 8396821.451379803940654 ] } },
{ "type": "Feature", "properties": { "title": "ДИКСИ, сеть супермаркетов", "address": "Санкт-Петербург, Блохина, 17" }, "geometry": { "type": "Point", "coordinates": [ 3372897.971974019426852, 8389111.430226795375347 ] } },
{ "type": "Feature", "properties": { "title": "ДИКСИ, сеть супермаркетов", "address": "Санкт-Петербург, Кадетская линия В.О., 25" }, "geometry": { "type": "Point", "coordinates": [ 3371505.031185724772513, 8387537.80877420399338 ] } },
{ "type": "Feature", "properties": { "title": "Продуктовый магазин", "address": "Санкт-Петербург, 5-я линия В.О., 46" }, "geometry": { "type": "Point", "coordinates": [ 3370708.985507061239332, 8387454.680046046152711 ] } },
{ "type": "Feature", "properties": { "title": "Администрация Петроградского района Санкт-Петербурга", "address": "Санкт-Петербург, Большая Монетная, 17-19к" }, "geometry": { "type": "Point", "coordinates": [ 3375099.982821400742978, 8391140.806538507342339 ] } },
{ "type": "Feature", "properties": { "title": "Националь, ЗАО, мини-маркет", "address": "Санкт-Петербург, Большая Монетная, 18" }, "geometry": { "type": "Point", "coordinates": [ 3375439.95254628546536, 8391430.350068660452962 ] } },
{ "type": "Feature", "properties": { "title": "Стелла, ООО, продуктовый магазин", "address": "Санкт-Петербург, Блохина, 6" }, "geometry": { "type": "Point", "coordinates": [ 3373400.022877496667206, 8388747.726868908852339 ] } },
{ "type": "Feature", "properties": { "title": "ДИКСИ, сеть супермаркетов", "address": "Санкт-Петербург, Большой Сампсониевский проспект, 57" }, "geometry": { "type": "Point", "coordinates": [ 3377475.986032894812524, 8393624.08981978148222 ] } },
{ "type": "Feature", "properties": { "title": "Кухонная утварь, магазин", "address": "Санкт-Петербург, Сытнинская площадь, 5" }, "geometry": { "type": "Point", "coordinates": [ 3374179.036674069240689, 8390289.365420894697309 ] } },
{ "type": "Feature", "properties": { "title": "ДИКСИ, сеть супермаркетов", "address": "Санкт-Петербург, Каменноостровский проспект, 50" }, "geometry": { "type": "Point", "coordinates": [ 3373719.955094038508832, 8393221.45860531181097 ] } },
{ "type": "Feature", "properties": { "title": "Продовольственный магазин", "address": "Санкт-Петербург, Малый проспект П.С., 20" }, "geometry": { "type": "Point", "coordinates": [ 3372123.967554535251111, 8389887.805767482146621 ] } },
{ "type": "Feature", "properties": { "title": "Лента, сеть гипермаркетов", "address": "Санкт-Петербург, Уральская, 29 к1" }, "geometry": { "type": "Point", "coordinates": [ 3366780.965954928658903, 8390019.8777897041291 ] } },
{ "type": "Feature", "properties": { "title": "ТИССУРА, магазин", "address": "Санкт-Петербург, Большой проспект П.С., 86" }, "geometry": { "type": "Point", "coordinates": [ 3374039.998630068264902, 8391841.11221694201231 ] } },
{ "type": "Feature", "properties": { "title": "Лента, сеть супермаркетов", "address": "Санкт-Петербург, Уральская, 4" }, "geometry": { "type": "Point", "coordinates": [ 3369201.051684775389731, 8388688.815728357061744 ] } },
{ "type": "Feature", "properties": { "title": "Народная семьЯ, сеть универсамов", "address": "Санкт-Петербург, Финляндский проспект, 1" }, "geometry": { "type": "Point", "coordinates": [ 3377665.006528261583298, 8390477.701324589550495 ] } },
{ "type": "Feature", "properties": { "title": "24 часа, продуктовый магазин", "address": "Санкт-Петербург, Большой Сампсониевский проспект, 18" }, "geometry": { "type": "Point", "coordinates": [ 3377994.957498971838504, 8390815.250444790348411 ] } },
{ "type": "Feature", "properties": { "title": "ДИКСИ, сеть супермаркетов", "address": "Санкт-Петербург, Большая Пушкарская, 30" }, "geometry": { "type": "Point", "coordinates": [ 3373468.039086373988539, 8390736.087339436635375 ] } },
{ "type": "Feature", "properties": { "title": "Фреско, ООО, продуктовый магазин", "address": "Санкт-Петербург, 5-я линия В.О., 48" }, "geometry": { "type": "Point", "coordinates": [ 3370661.006806529592723, 8387543.810082316398621 ] } },
{ "type": "Feature", "properties": { "title": "Бразес, ООО, мини-маркет", "address": "Санкт-Петербург, Блохина, 25" }, "geometry": { "type": "Point", "coordinates": [ 3372507.017922354396433, 8389165.45371164008975 ] } },
{ "type": "Feature", "properties": { "title": "Мираж, ООО, продуктовый магазин", "address": "Санкт-Петербург, Малый проспект П.С., 5" }, "geometry": { "type": "Point", "coordinates": [ 3371948.973315007518977, 8389537.181597646325827 ] } },
{ "type": "Feature", "properties": { "title": "Продуктовый магазин, ИП Берзан М.Д.", "address": "Санкт-Петербург, Карельский переулок, 3Б" }, "geometry": { "type": "Point", "coordinates": [ 3372463.046723492443562, 8396818.335668694227934 ] } },
{ "type": "Feature", "properties": { "title": "Продуктовый магазин", "address": "Санкт-Петербург, Мичуринская, 10а" }, "geometry": { "type": "Point", "coordinates": [ 3352692.037241660989821, 8353169.432164655998349 ] } },
{ "type": "Feature", "properties": { "title": "Hilux Store Vape Shop, магазин", "address": "Санкт-Петербург, Большой проспект П.С., 104" }, "geometry": { "type": "Point", "coordinates": [ 3374476.037075504660606, 8392451.181861924007535 ] } },
{ "type": "Feature", "properties": { "title": "Естный, сеть супермаркетов", "address": "Санкт-Петербург, Большой Сампсониевский проспект, 43" }, "geometry": { "type": "Point", "coordinates": [ 3377660.999026591423899, 8392777.699968909844756 ] } },
{ "type": "Feature", "properties": { "title": "Санкт-Петербургские сувениры, магазин", "address": "Санкт-Петербург, Петропавловская Крепость, 3ж" }, "geometry": { "type": "Point", "coordinates": [ 3374831.034931646194309, 8388666.585231678560376 ] } },
{ "type": "Feature", "properties": { "title": "ДИКСИ, сеть супермаркетов", "address": "Санкт-Петербург, 6-я линия В.О., 55" }, "geometry": { "type": "Point", "coordinates": [ 3370036.949741141870618, 8388142.854132898151875 ] } },
{ "type": "Feature", "properties": { "title": "Естный, сеть супермаркетов", "address": "Санкт-Петербург, Медиков проспект, 5" }, "geometry": { "type": "Point", "coordinates": [ 3374600.046988248825073, 8392960.983503902330995 ] } },
{ "type": "Feature", "properties": { "title": "Администрация Петроградского района Санкт-Петербурга", "address": "Санкт-Петербург, Большая Монетная, 17-19к" }, "geometry": { "type": "Point", "coordinates": [ 3375099.982821400742978, 8391140.806538507342339 ] } },
{ "type": "Feature", "properties": { "title": "Естный, сеть супермаркетов", "address": "Санкт-Петербург, Чапаева, 15" }, "geometry": { "type": "Point", "coordinates": [ 3376468.989919179584831, 8391099.888862024992704 ] } },
{ "type": "Feature", "properties": { "title": "Меркурий, ООО, сеть магазинов", "address": "Санкт-Петербург, Котовского, 15" }, "geometry": { "type": "Point", "coordinates": [ 3376311.027561742812395, 8391249.995580952614546 ] } },
{ "type": "Feature", "properties": { "title": "Moreschi, магазин", "address": "Санкт-Петербург, Большой проспект П.С., 13" }, "geometry": { "type": "Point", "coordinates": [ 3372447.016716817393899, 8389768.631698505952954 ] } },
{ "type": "Feature", "properties": { "title": "Продуктовый магазин, ИП Аветисова Е.А.", "address": "Санкт-Петербург, Набережная Чёрной речки, 51 лит Б" }, "geometry": { "type": "Point", "coordinates": [ 3373526.036541077308357, 8396772.26780816167593 ] } },
{ "type": "Feature", "properties": { "title": "МарЛен, магазин-кулинария", "address": "Санкт-Петербург, Большая Пушкарская, 34" }, "geometry": { "type": "Point", "coordinates": [ 3373557.985234933905303, 8390843.269051039591432 ] } },
{ "type": "Feature", "properties": { "title": "Народная семьЯ, сеть универсамов", "address": "Санкт-Петербург, 2-я линия В.О., 39" }, "geometry": { "type": "Point", "coordinates": [ 3371228.958848556037992, 8387378.442491401918232 ] } },
{ "type": "Feature", "properties": { "title": "Реалъ, сеть универсамов", "address": "Санкт-Петербург, Савушкина, 37" }, "geometry": { "type": "Point", "coordinates": [ 3370647.982426105998456, 8396355.667197052389383 ] } },
{ "type": "Feature", "properties": { "title": "Пожарная часть №10 Петроградского района", "address": "null" }, "geometry": { "type": "Point", "coordinates": [ -10023588.999518753960729, 6540403.720521343871951 ] } },
{ "type": "Feature", "properties": { "title": "ТехноДом, магазин", "address": "Санкт-Петербург, Савушкина, 19" }, "geometry": { "type": "Point", "coordinates": [ 3371644.959785650018603, 8396519.010996110737324 ] } },
{ "type": "Feature", "properties": { "title": "Мини-маркет", "address": "Санкт-Петербург, 3-я линия В.О., 46" }, "geometry": { "type": "Point", "coordinates": [ 3370915.037884518504143, 8387759.193597740493715 ] } },
{ "type": "Feature", "properties": { "title": "SPAR, сеть супермаркетов", "address": "Санкт-Петербург, Савушкина, 21" }, "geometry": { "type": "Point", "coordinates": [ 3371400.94746183231473, 8396649.19904301315546 ] } },
{ "type": "Feature", "properties": { "title": "Все для сада, магазин", "address": "Санкт-Петербург, Каменноостровский проспект, 19" }, "geometry": { "type": "Point", "coordinates": [ 3374821.016177474521101, 8391065.642720531672239 ] } },
{ "type": "Feature", "properties": { "title": "Пижон, ООО, продуктовый магазин", "address": "Санкт-Петербург, Съезжинская, 27" }, "geometry": { "type": "Point", "coordinates": [ 3373157.012429097201675, 8389404.006592728197575 ] } },
{ "type": "Feature", "properties": { "title": "Естный, сеть супермаркетов", "address": "Санкт-Петербург, Дивенская, 5" }, "geometry": { "type": "Point", "coordinates": [ 3375314.050202198792249, 8390808.35699450224638 ] } },
{ "type": "Feature", "properties": { "title": "Фурнитуркин, магазин", "address": "Санкт-Петербург, Большая Зеленина, 29" }, "geometry": { "type": "Point", "coordinates": [ 3371497.016182387247682, 8391779.952351810410619 ] } },
{ "type": "Feature", "properties": { "title": "Пятёрочка, сеть супермаркетов", "address": "Санкт-Петербург, Пионерская, 21" }, "geometry": { "type": "Point", "coordinates": [ 3371960.99582001240924, 8390408.547912800684571 ] } },
{ "type": "Feature", "properties": { "title": "Перекресток, сеть супермаркетов", "address": "Санкт-Петербург, Кронверкская, 5" }, "geometry": { "type": "Point", "coordinates": [ 3374445.980812990572304, 8390430.561307867988944 ] } },
{ "type": "Feature", "properties": { "title": "Администрация Петроградского района Санкт-Петербурга", "address": "Санкт-Петербург, Большая Монетная, 17-19к" }, "geometry": { "type": "Point", "coordinates": [ 3375099.982821400742978, 8391140.806538507342339 ] } },
{ "type": "Feature", "properties": { "title": "Жилкомсервис №2 Петроградского района", "address": "Санкт-Петербург, Гатчинская, 16" }, "geometry": { "type": "Point", "coordinates": [ 3372959.97693039290607, 8391219.084465829655528 ] } },
{ "type": "Feature", "properties": { "title": "Следственный отдел по Петроградскому району, Главное следственное управление Следственного комитета РФ по г. Санкт-Петербургу", "address": "Санкт-Петербург, Большая Монетная, 27" }, "geometry": { "type": "Point", "coordinates": [ 3375798.957904093898833, 8391468.378520533442497 ] } },
{ "type": "Feature", "properties": { "title": "МинутаМаркет, сеть мини-маркетов", "address": "Санкт-Петербург, Петроградская набережная, 20" }, "geometry": { "type": "Point", "coordinates": [ 3376804.952142390888184, 8390828.370255082845688 ] } },
{ "type": "Feature", "properties": { "title": "ДИКСИ, сеть супермаркетов", "address": "Санкт-Петербург, Саблинская, 13\/15" }, "geometry": { "type": "Point", "coordinates": [ 3373773.054491146933287, 8390226.217269960790873 ] } },
{ "type": "Feature", "properties": { "title": "Продуктовый магазин, ИП Богданов И.Г.", "address": "Санкт-Петербург, 6-я линия В.О., 51" }, "geometry": { "type": "Point", "coordinates": [ 3370165.969030971638858, 8387900.341008477844298 ] } },
{ "type": "Feature", "properties": { "title": "Естный, сеть супермаркетов", "address": "Санкт-Петербург, Глухая Зеленина, 2" }, "geometry": { "type": "Point", "coordinates": [ 3370936.96782420668751, 8391642.733701813966036 ] } },
{ "type": "Feature", "properties": { "title": "Многофункциональный центр предоставления государственных услуг Петроградского района", "address": "Санкт-Петербург, Красного Курсанта, 28" }, "geometry": { "type": "Point", "coordinates": [ 3370552.025025042239577, 8390895.526260076090693 ] } },
{ "type": "Feature", "properties": { "title": "Продуктовый магазин", "address": "Санкт-Петербург, Чкаловский проспект, 16" }, "geometry": { "type": "Point", "coordinates": [ 3371901.996489894110709, 8391007.602545520290732 ] } },
{ "type": "Feature", "properties": { "title": "Многофункциональный центр предоставления государственных услуг Петроградского района", "address": "Санкт-Петербург, Каменноостровский проспект, 55 лит Г" }, "geometry": { "type": "Point", "coordinates": [ 3373811.01443750737235, 8393504.855299342423677 ] } },
{ "type": "Feature", "properties": { "title": "Белорусский дворик, сеть магазинов", "address": "Санкт-Петербург, Съезжинская, 8" }, "geometry": { "type": "Point", "coordinates": [ 3372663.978404372930527, 8389598.322848511859775 ] } },
{ "type": "Feature", "properties": { "title": "Мировые судьи Петроградского района", "address": "Санкт-Петербург, Большая Разночинная, 23Б" }, "geometry": { "type": "Point", "coordinates": [ 3371633.048600136302412, 8391127.908550744876266 ] } },
{ "type": "Feature", "properties": { "title": "Мини-маркет, ИП Беляков В.В.", "address": "Санкт-Петербург, Савушкина, 15" }, "geometry": { "type": "Point", "coordinates": [ 3372008.974520544521511, 8396585.996353378519416 ] } },
{ "type": "Feature", "properties": { "title": "Естный, сеть супермаркетов", "address": "Санкт-Петербург, Савушкина, 42" }, "geometry": { "type": "Point", "coordinates": [ 3371172.965144689660519, 8396351.661536311730742 ] } },
{ "type": "Feature", "properties": { "title": "Планета Тканей, магазин", "address": "Санкт-Петербург, Карельский переулок, 4" }, "geometry": { "type": "Point", "coordinates": [ 3372403.04551795264706, 8396774.270752631127834 ] } },
{ "type": "Feature", "properties": { "title": "Комплексный центр социального обслуживания населения Петроградского района", "address": "Санкт-Петербург, Чкаловский проспект, 30" }, "geometry": { "type": "Point", "coordinates": [ 3372373.99113085726276, 8391601.590844487771392 ] } },
{ "type": "Feature", "properties": { "title": "ЗАГС Петроградского района", "address": "Санкт-Петербург, Большая Монетная, 17-19а" }, "geometry": { "type": "Point", "coordinates": [ 3375012.040423674974591, 8391186.839196167886257 ] } },
{ "type": "Feature", "properties": { "title": "ДИКСИ, сеть супермаркетов", "address": "Санкт-Петербург, Набережная Макарова, 28" }, "geometry": { "type": "Point", "coordinates": [ 3370854.034803566057235, 8388252.887926030904055 ] } },
{ "type": "Feature", "properties": { "title": "Продовольственный магазин", "address": "Санкт-Петербург, Гатчинская, 6" }, "geometry": { "type": "Point", "coordinates": [ 3373206.994880462531, 8391030.729610271751881 ] } },
{ "type": "Feature", "properties": { "title": "Фермер, магазин", "address": "Санкт-Петербург, Всеволода Вишневского, 10" }, "geometry": { "type": "Point", "coordinates": [ 3373158.014304512646049, 8392418.931199306622148 ] } },
{ "type": "Feature", "properties": { "title": "Планета шунгита, магазин", "address": "Санкт-Петербург, Введенская, 21" }, "geometry": { "type": "Point", "coordinates": [ 3373719.955094038508832, 8389747.509629910811782 ] } },
{ "type": "Feature", "properties": { "title": "Vape shop 101, магазин", "address": "Санкт-Петербург, Лахтинская, 23" }, "geometry": { "type": "Point", "coordinates": [ 3372705.945852400735021, 8391720.794565318152308 ] } },
{ "type": "Feature", "properties": { "title": "Лайм, сеть супермаркетов", "address": "Санкт-Петербург, Малая Посадская, 13" }, "geometry": { "type": "Point", "coordinates": [ 3375985.974648626986891, 8390167.294307375326753 ] } },
{ "type": "Feature", "properties": { "title": "Продуктовый магазин", "address": "Санкт-Петербург, Савушкина, 54 лит Б" }, "geometry": { "type": "Point", "coordinates": [ 3370646.980550690554082, 8396275.554396111518145 ] } },
{ "type": "Feature", "properties": { "title": "Продуктовый магазин", "address": "Санкт-Петербург, Дибуновская, 36" }, "geometry": { "type": "Point", "coordinates": [ 3369723.028777104336768, 8396398.616918556392193 ] } },
{ "type": "Feature", "properties": { "title": "Конфетка, продовольственный магазин", "address": "Санкт-Петербург, Малый проспект П.С., 1" }, "geometry": { "type": "Point", "coordinates": [ 3371818.952149762306362, 8389354.872515965253115 ] } },
{ "type": "Feature", "properties": { "title": "В7, сеть продуктовых магазинов", "address": "Санкт-Петербург, Малая Посадская, 19" }, "geometry": { "type": "Point", "coordinates": [ 3376308.021935490425676, 8390415.663346441462636 ] } },
{ "type": "Feature", "properties": { "title": "Администрация Петроградского района Санкт-Петербурга", "address": "Санкт-Петербург, Большая Монетная, 17-19к" }, "geometry": { "type": "Point", "coordinates": [ 3375099.982821400742978, 8391140.806538507342339 ] } },
{ "type": "Feature", "properties": { "title": "Лента, сеть супермаркетов", "address": "Санкт-Петербург, Левашовский проспект, 21" }, "geometry": { "type": "Point", "coordinates": [ 3371097.045251968782395, 8392340.862938435748219 ] } },
{ "type": "Feature", "properties": { "title": "ДИКСИ, сеть супермаркетов", "address": "Санкт-Петербург, Каменноостровский проспект, 26-28" }, "geometry": { "type": "Point", "coordinates": [ 3374528.023277706932276, 8391470.380023440346122 ] } },
{ "type": "Feature", "properties": { "title": "ДИКСИ, сеть супермаркетов", "address": "Санкт-Петербург, Каменноостровский проспект, 64 к1" }, "geometry": { "type": "Point", "coordinates": [ 3373278.016715588979423, 8394107.943732839077711 ] } },
{ "type": "Feature", "properties": { "title": "Жилкомсервис №2 Петроградского района", "address": "Санкт-Петербург, Чапыгина, 11" }, "geometry": { "type": "Point", "coordinates": [ 3374175.029172401875257, 8393820.297093242406845 ] } },
{ "type": "Feature", "properties": { "title": "Поток, ООО, продуктовый магазин", "address": "Санкт-Петербург, Большая Зеленина, 16" }, "geometry": { "type": "Point", "coordinates": [ 3371874.055297704879194, 8391316.26589072868228 ] } },
{ "type": "Feature", "properties": { "title": "Старый Город, ООО, продуктовый магазин", "address": "Санкт-Петербург, Куйбышева, 36" }, "geometry": { "type": "Point", "coordinates": [ 3376613.037340263836086, 8390325.386791653931141 ] } },
{ "type": "Feature", "properties": { "title": "Администрация Петроградского района Санкт-Петербурга", "address": "Санкт-Петербург, Большая Монетная, 17-19к" }, "geometry": { "type": "Point", "coordinates": [ 3375099.982821400742978, 8391140.806538507342339 ] } },
{ "type": "Feature", "properties": { "title": "Белорусский ласунак, магазин", "address": "Санкт-Петербург, Блохина, 16" }, "geometry": { "type": "Point", "coordinates": [ 3372952.96380247361958, 8389038.287950487807393 ] } },
{ "type": "Feature", "properties": { "title": "Народная семьЯ, сеть универсамов", "address": "Санкт-Петербург, Пионерская, 37" }, "geometry": { "type": "Point", "coordinates": [ 3371577.05489626666531, 8390553.97095263376832 ] } },
{ "type": "Feature", "properties": { "title": "Администрация Петроградского района Санкт-Петербурга", "address": "Санкт-Петербург, Большая Монетная, 17-19к" }, "geometry": { "type": "Point", "coordinates": [ 3375099.982821400742978, 8391140.806538507342339 ] } },
{ "type": "Feature", "properties": { "title": "Продуктовый магазин, ИП Малиев Р.Г.", "address": "Санкт-Петербург, Смолячкова, 12а" }, "geometry": { "type": "Point", "coordinates": [ 3377672.019656180869788, 8393253.490338223055005 ] } },
{ "type": "Feature", "properties": { "title": "Белорусский гостинец, сеть продовольственных магазинов", "address": "Санкт-Петербург, Карельский переулок, 3 к3" }, "geometry": { "type": "Point", "coordinates": [ 3372507.017922354396433, 8396821.451379803940654 ] } },
{ "type": "Feature", "properties": { "title": "Продовольственный магазин, ИП Мокряк С.", "address": "Санкт-Петербург, Малый проспект В.О., 13" }, "geometry": { "type": "Point", "coordinates": [ 3370410.983230207581073, 8388163.749312683008611 ] } },
{ "type": "Feature", "properties": { "title": "Продуктовый магазин", "address": "Санкт-Петербург, Ропшинская, 17а" }, "geometry": { "type": "Point", "coordinates": [ 3372513.029174858238548, 8390517.726103836670518 ] } },
{ "type": "Feature", "properties": { "title": "ТехноДом, магазин", "address": "Санкт-Петербург, Савушкина, 19" }, "geometry": { "type": "Point", "coordinates": [ 3371644.959785650018603, 8396519.010996110737324 ] } },
{ "type": "Feature", "properties": { "title": "Продуктовый магазин, ИП Исмаилов Т.Х.", "address": "Санкт-Петербург, Левашовский проспект, 4" }, "geometry": { "type": "Point", "coordinates": [ 3372610.990326755680144, 8392189.6219377592206 ] } },
{ "type": "Feature", "properties": { "title": "Продуктовый магазин", "address": "Санкт-Петербург, Рюхина, 3 лит Б" }, "geometry": { "type": "Point", "coordinates": [ 3368153.980554374866188, 8393903.497673612087965 ] } },
{ "type": "Feature", "properties": { "title": "Ленинский, гастроном", "address": "Санкт-Петербург, Малая Пушкарская, 36" }, "geometry": { "type": "Point", "coordinates": [ 3373861.998764291405678, 8390913.538405254483223 ] } },
{ "type": "Feature", "properties": { "title": "Мини-маркет", "address": "Санкт-Петербург, Липовая аллея, 11" }, "geometry": { "type": "Point", "coordinates": [ 3368174.018062717746943, 8396575.091718820855021 ] } },
{ "type": "Feature", "properties": { "title": "SPAR, сеть супермаркетов", "address": "Санкт-Петербург, Чкаловский проспект, 15" }, "geometry": { "type": "Point", "coordinates": [ 3372313.989925317466259, 8391378.311452589929104 ] } },
{ "type": "Feature", "properties": { "title": "Пятёрочка, сеть супермаркетов", "address": "Санкт-Петербург, Саблинская, 4" }, "geometry": { "type": "Point", "coordinates": [ 3373654.944511415902525, 8390676.048472771421075 ] } },
{ "type": "Feature", "properties": { "title": "Полушка, сеть универсамов", "address": "Санкт-Петербург, Большая Пушкарская, 44" }, "geometry": { "type": "Point", "coordinates": [ 3373812.016312922816724, 8391155.928346017375588 ] } },
{ "type": "Feature", "properties": { "title": "ЮлВо, ООО, мини-маркет", "address": "Санкт-Петербург, Большой проспект П.С., 100" }, "geometry": { "type": "Point", "coordinates": [ 3374432.956432570237666, 8392331.966323036700487 ] } },
{ "type": "Feature", "properties": { "title": "География чая, магазин", "address": "Санкт-Петербург, Большая Зеленина, 9" }, "geometry": { "type": "Point", "coordinates": [ 3372340.03868616418913, 8390921.543817250058055 ] } },
{ "type": "Feature", "properties": { "title": "Продуктовый магазин, ИП Мустафаев Т.И.", "address": "Санкт-Петербург, Малый проспект П.С., 34" }, "geometry": { "type": "Point", "coordinates": [ 3372245.973716442938894, 8390399.653630424290895 ] } },
{ "type": "Feature", "properties": { "title": "Магазин продуктов", "address": "Санкт-Петербург, Чапаева, 11" }, "geometry": { "type": "Point", "coordinates": [ 3376522.979872212745249, 8390882.406330194324255 ] } },
{ "type": "Feature", "properties": { "title": "Магнит, сеть универсамов", "address": "Санкт-Петербург, Ижорская, 13" }, "geometry": { "type": "Point", "coordinates": [ 3372648.950273116119206, 8390711.18226870149374 ] } },
{ "type": "Feature", "properties": { "title": "Сусанин, магазин", "address": "Санкт-Петербург, Льва Толстого, 7" }, "geometry": { "type": "Point", "coordinates": [ 3374648.02568878326565, 8392010.360890209674835 ] } },
{ "type": "Feature", "properties": { "title": "Полушка, сеть универсамов", "address": "Санкт-Петербург, Левашовский проспект, 13а" }, "geometry": { "type": "Point", "coordinates": [ 3371508.036811976693571, 8392342.8646783772856 ] } },
{ "type": "Feature", "properties": { "title": "Мир замков, магазин", "address": "Санкт-Петербург, Медиков проспект, 5" }, "geometry": { "type": "Point", "coordinates": [ 3374600.046988248825073, 8392960.983503902330995 ] } },
{ "type": "Feature", "properties": { "title": "Жилкомсервис №2 Петроградского района", "address": "Санкт-Петербург, Большая Монетная, 11" }, "geometry": { "type": "Point", "coordinates": [ 3374714.038146821316332, 8391075.64969346858561 ] } },
{ "type": "Feature", "properties": { "title": "Лента, сеть супермаркетов", "address": "Санкт-Петербург, Левашовский проспект, 21" }, "geometry": { "type": "Point", "coordinates": [ 3371097.045251968782395, 8392340.862938435748219 ] } },
{ "type": "Feature", "properties": { "title": "Гранд, ООО, мини-маркет", "address": "Санкт-Петербург, Лизы Чайкиной, 24" }, "geometry": { "type": "Point", "coordinates": [ 3373428.965945104137063, 8389748.621316220611334 ] } },
{ "type": "Feature", "properties": { "title": "Продуктовый магазин", "address": "Санкт-Петербург, Мончегорская, 10Б" }, "geometry": { "type": "Point", "coordinates": [ 3372306.976797400973737, 8390323.385599771514535 ] } },
{ "type": "Feature", "properties": { "title": "Стерео Маркет, магазин", "address": "Санкт-Петербург, Каменноостровский проспект, 42Б" }, "geometry": { "type": "Point", "coordinates": [ 3373963.967417856212705, 8392668.488282948732376 ] } },
{ "type": "Feature", "properties": { "title": "71 отдел полиции Управления МВД Петроградского района", "address": "Санкт-Петербург, Мончегорская, 6" }, "geometry": { "type": "Point", "coordinates": [ 3372433.992336393799633, 8390222.214940598234534 ] } },
{ "type": "Feature", "properties": { "title": "Отдел вневедомственной охраны при УВД Петроградского района", "address": "Санкт-Петербург, Мончегорская, 4" }, "geometry": { "type": "Point", "coordinates": [ 3372515.032925691921264, 8390158.177966579794884 ] } },
{ "type": "Feature", "properties": { "title": "Идея, сеть супермаркетов", "address": "Санкт-Петербург, Каменноостровский проспект, 42" }, "geometry": { "type": "Point", "coordinates": [ 3374082.967953514307737, 8392369.999429065734148 ] } },
{ "type": "Feature", "properties": { "title": "Азбука вкуса, сеть супермаркетов", "address": "Санкт-Петербург, Большой проспект П.С., 58" }, "geometry": { "type": "Point", "coordinates": [ 3373373.974116652738303, 8391075.64969346858561 ] } },
{ "type": "Feature", "properties": { "title": "Юниверс", "address": "Санкт-Петербург, Петровский проспект, 18" }, "geometry": { "type": "Point", "coordinates": [ 3369515.974524231627584, 8390660.038190959021449 ] } },
{ "type": "Feature", "properties": { "title": "ВИНИССИМО, магазин", "address": "Санкт-Петербург, Малая Посадская, 7\/4" }, "geometry": { "type": "Point", "coordinates": [ 3375431.046987020410597, 8390263.35009597428143 ] } },
{ "type": "Feature", "properties": { "title": "Евросантехника, магазин", "address": "Санкт-Петербург, Железноводская, 3" }, "geometry": { "type": "Point", "coordinates": [ 3368088.969971749465913, 8389353.760889060795307 ] } },
{ "type": "Feature", "properties": { "title": "Салюс, ООО, продуктовый магазин", "address": "Санкт-Петербург, Гатчинская, 35" }, "geometry": { "type": "Point", "coordinates": [ 3372525.051679863128811, 8391652.741458607837558 ] } },
{ "type": "Feature", "properties": { "title": "ТИССУРА, магазин", "address": "Санкт-Петербург, Большой проспект П.С., 27" }, "geometry": { "type": "Point", "coordinates": [ 3372851.997024321462959, 8390257.346572499722242 ] } },
{ "type": "Feature", "properties": { "title": "Ткани Италии, магазин", "address": "Санкт-Петербург, Большой проспект П.С., 45" }, "geometry": { "type": "Point", "coordinates": [ 3373500.98965564602986, 8391058.749035969376564 ] } },
{ "type": "Feature", "properties": { "title": "Gastroman Fresh Market, продовольственный магазин", "address": "Санкт-Петербург, Медиков проспект, 10 к1" }, "geometry": { "type": "Point", "coordinates": [ 3374798.974918295629323, 8394108.833608396351337 ] } },
{ "type": "Feature", "properties": { "title": "Май, гастроном", "address": "Санкт-Петербург, Средний проспект В.О., 16" }, "geometry": { "type": "Point", "coordinates": [ 3371265.026363574434072, 8387427.563391048461199 ] } },
{ "type": "Feature", "properties": { "title": "Шанс, продуктовый магазин", "address": "Санкт-Петербург, Введенская, 5" }, "geometry": { "type": "Point", "coordinates": [ 3373098.013098975643516, 8390096.142678724601865 ] } },
{ "type": "Feature", "properties": { "title": "Ногти.РФ, магазин", "address": "Санкт-Петербург, Фокина, 1" }, "geometry": { "type": "Point", "coordinates": [ 3377501.032918323297054, 8392364.883853664621711 ] } },
{ "type": "Feature", "properties": { "title": "ДИКСИ, сеть супермаркетов", "address": "Санкт-Петербург, Сытнинская площадь, 4" }, "geometry": { "type": "Point", "coordinates": [ 3374101.001711023505777, 8390175.298908593133092 ] } },
{ "type": "Feature", "properties": { "title": "Перекресток, сеть супермаркетов", "address": "Санкт-Петербург, Кронверкская, 5" }, "geometry": { "type": "Point", "coordinates": [ 3374445.980812990572304, 8390430.561307867988944 ] } },
{ "type": "Feature", "properties": { "title": "Мировые судьи Петроградского района", "address": "Санкт-Петербург, Большая Разночинная, 23Б" }, "geometry": { "type": "Point", "coordinates": [ 3371633.048600136302412, 8391127.908550744876266 ] } },
{ "type": "Feature", "properties": { "title": "ДИКСИ, сеть супермаркетов", "address": "Санкт-Петербург, Ленина, 43" }, "geometry": { "type": "Point", "coordinates": [ 3372775.965812111739069, 8391901.160578470677137 ] } },
{ "type": "Feature", "properties": { "title": "Ками, ООО, продовольственный магазин", "address": "Санкт-Петербург, Стародеревенская, 6 к1" }, "geometry": { "type": "Point", "coordinates": [ 3366529.04994726460427, 8396770.264864237979054 ] } },
{ "type": "Feature", "properties": { "title": "Идея, сеть супермаркетов", "address": "Санкт-Петербург, Чкаловский проспект, 15" }, "geometry": { "type": "Point", "coordinates": [ 3372313.989925317466259, 8391378.311452589929104 ] } },
{ "type": "Feature", "properties": { "title": "ДИКСИ, сеть супермаркетов", "address": "Санкт-Петербург, Рыбацкая, 5" }, "geometry": { "type": "Point", "coordinates": [ 3372635.03533676546067, 8390580.876753244549036 ] } },
{ "type": "Feature", "properties": { "title": "Продовольственный магазин", "address": "Санкт-Петербург, Съезжинская, 25" }, "geometry": { "type": "Point", "coordinates": [ 3373139.980547006241977, 8389473.150576986372471 ] } },
{ "type": "Feature", "properties": { "title": "Информационно-методический центр Петроградского района", "address": "Санкт-Петербург, Нестерова переулок, 9" }, "geometry": { "type": "Point", "coordinates": [ 3372634.033461350016296, 8389406.007534926757216 ] } },
{ "type": "Feature", "properties": { "title": "Улица Гобеленов, магазин", "address": "Санкт-Петербург, Ленина, 41" }, "geometry": { "type": "Point", "coordinates": [ 3372854.000775157939643, 8391850.00823961570859 ] } },
{ "type": "Feature", "properties": { "title": "Наш маркет, супермаркет", "address": "Санкт-Петербург, Большая Зеленина, 5" }, "geometry": { "type": "Point", "coordinates": [ 3372442.007339731790125, 8390821.2544228695333 ] } },
{ "type": "Feature", "properties": { "title": "Комплексный центр социального обслуживания населения Петроградского района", "address": "Санкт-Петербург, Большая Монетная, 17 лит Д" }, "geometry": { "type": "Point", "coordinates": [ 3375012.040423674974591, 8391186.839196167886257 ] } },
{ "type": "Feature", "properties": { "title": "Комплексный центр социального обслуживания населения Петроградского района", "address": "Санкт-Петербург, Большая Монетная, 17 лит Д" }, "geometry": { "type": "Point", "coordinates": [ 3375012.040423674974591, 8391186.839196167886257 ] } },
{ "type": "Feature", "properties": { "title": "Абсолют, ООО, продовольственный магазин", "address": "Санкт-Петербург, Зверинская, 46" }, "geometry": { "type": "Point", "coordinates": [ 3373431.971571356058121, 8389126.547869883477688 ] } },
{ "type": "Feature", "properties": { "title": "Управление МВД России по Петроградскому району", "address": "Санкт-Петербург, Большая Монетная, 20" }, "geometry": { "type": "Point", "coordinates": [ 3375523.998761835042387, 8391460.372514355927706 ] } },
{ "type": "Feature", "properties": { "title": "Естный, сеть супермаркетов", "address": "Санкт-Петербург, Медиков проспект, 5" }, "geometry": { "type": "Point", "coordinates": [ 3374600.046988248825073, 8392960.983503902330995 ] } },
{ "type": "Feature", "properties": { "title": "Медтехника+ортопедия, магазин", "address": "Санкт-Петербург, Большой Сампсониевский проспект, 40" }, "geometry": { "type": "Point", "coordinates": [ 3377512.053547909948975, 8393104.23254806548357 ] } },
{ "type": "Feature", "properties": { "title": "Продуктовый магазин", "address": "Санкт-Петербург, Большая Монетная, 23" }, "geometry": { "type": "Point", "coordinates": [ 3375532.013765169773251, 8391374.308497343212366 ] } },
{ "type": "Feature", "properties": { "title": "24 часа, продуктовый магазин", "address": "Санкт-Петербург, Большой Сампсониевский проспект, 18" }, "geometry": { "type": "Point", "coordinates": [ 3377994.957498971838504, 8390815.250444790348411 ] } },
{ "type": "Feature", "properties": { "title": "Трест 104-книга, ООО, магазин", "address": "Санкт-Петербург, Блохина, 21" }, "geometry": { "type": "Point", "coordinates": [ 3372758.043374094180763, 8389125.436277424916625 ] } },
{ "type": "Feature", "properties": { "title": "Гвардия, магазин", "address": "Санкт-Петербург, Большая Пушкарская, 19" }, "geometry": { "type": "Point", "coordinates": [ 3373498.985904812347144, 8390542.852881897240877 ] } },
{ "type": "Feature", "properties": { "title": "Фирма Вип, ООО, продовольственный магазин", "address": "Санкт-Петербург, Большая Монетная, 11" }, "geometry": { "type": "Point", "coordinates": [ 3374714.038146821316332, 8391075.64969346858561 ] } },
{ "type": "Feature", "properties": { "title": "Комплексный центр социального обслуживания населения Петроградского района", "address": "Санкт-Петербург, Мытнинская набережная, 11" }, "geometry": { "type": "Point", "coordinates": [ 3373341.023547377903014, 8388336.025659451261163 ] } },
{ "type": "Feature", "properties": { "title": "ДИКСИ, сеть супермаркетов", "address": "Санкт-Петербург, Набережная Макарова, 28" }, "geometry": { "type": "Point", "coordinates": [ 3370854.034803566057235, 8388252.887926030904055 ] } },
{ "type": "Feature", "properties": { "title": "Автозапчасти, ООО, магазин", "address": "Санкт-Петербург, Уральская, 23 лит Н" }, "geometry": { "type": "Point", "coordinates": [ 3367542.947869410738349, 8390203.315081350505352 ] } },
{ "type": "Feature", "properties": { "title": "ДИКСИ, сеть супермаркетов", "address": "Санкт-Петербург, Сестрорецкая, 5" }, "geometry": { "type": "Point", "coordinates": [ 3371969.010823350399733, 8396914.700772419571877 ] } },
{ "type": "Feature", "properties": { "title": "Азбука вкуса, сеть супермаркетов", "address": "Санкт-Петербург, Большой проспект П.С., 58" }, "geometry": { "type": "Point", "coordinates": [ 3373373.974116652738303, 8391075.64969346858561 ] } },
{ "type": "Feature", "properties": { "title": "Поток, ООО, продуктовый магазин", "address": "Санкт-Петербург, Большая Зеленина, 16" }, "geometry": { "type": "Point", "coordinates": [ 3371874.055297704879194, 8391316.26589072868228 ] } },
{ "type": "Feature", "properties": { "title": "ДОМ ПОСУДЫ, ООО, магазин", "address": "Санкт-Петербург, Малый проспект П.С., 42" }, "geometry": { "type": "Point", "coordinates": [ 3372464.048598907887936, 8390644.917401185259223 ] } },
{ "type": "Feature", "properties": { "title": "Народная семьЯ, сеть универсамов", "address": "Санкт-Петербург, Малая Посадская, 3" }, "geometry": { "type": "Point", "coordinates": [ 3375304.031448027584702, 8390313.379648501053452 ] } },
{ "type": "Feature", "properties": { "title": "Рапира, магазин", "address": "Санкт-Петербург, Чкаловский проспект, 25" }, "geometry": { "type": "Point", "coordinates": [ 3372758.043374094180763, 8391955.204522302374244 ] } },
{ "type": "Feature", "properties": { "title": "Народная семьЯ, сеть универсамов", "address": "Санкт-Петербург, Малая Посадская, 3" }, "geometry": { "type": "Point", "coordinates": [ 3375304.031448027584702, 8390313.379648501053452 ] } },
{ "type": "Feature", "properties": { "title": "Конфетки & Бараночки, продовольственный магазин", "address": "Санкт-Петербург, Кронверкская, 17" }, "geometry": { "type": "Point", "coordinates": [ 3374318.965273997280747, 8390868.39693933352828 ] } },
{ "type": "Feature", "properties": { "title": "ТИССУРА, магазин", "address": "Санкт-Петербург, Большой проспект П.С., 27" }, "geometry": { "type": "Point", "coordinates": [ 3372851.997024321462959, 8390257.346572499722242 ] } },
{ "type": "Feature", "properties": { "title": "В7, сеть продуктовых магазинов", "address": "Санкт-Петербург, Красносельская, 3" }, "geometry": { "type": "Point", "coordinates": [ 3372584.051009984686971, 8390322.496181333437562 ] } },
{ "type": "Feature", "properties": { "title": "Продовольственный магазин, ИП Садыхов Х.А.", "address": "Санкт-Петербург, Колпинская, 15" }, "geometry": { "type": "Point", "coordinates": [ 3372633.031585931777954, 8390879.515501331537962 ] } },
{ "type": "Feature", "properties": { "title": "Продуктовый магазин", "address": "Санкт-Петербург, Тучков переулок, 12" }, "geometry": { "type": "Point", "coordinates": [ 3371684.032926919870079, 8387440.677170757204294 ] } },
{ "type": "Feature", "properties": { "title": "Клиент, ООО, продуктовый магазин", "address": "Санкт-Петербург, Кронверкский проспект, 45" }, "geometry": { "type": "Point", "coordinates": [ 3374378.96647953428328, 8390155.2874218467623 ] } },
{ "type": "Feature", "properties": { "title": "Диез, ООО, продовольственный магазин", "address": "Санкт-Петербург, Пионерская, 65 лит Б" }, "geometry": { "type": "Point", "coordinates": [ 3370573.954964727628976, 8391483.501000393182039 ] } },
{ "type": "Feature", "properties": { "title": "Информационно-методический центр Петроградского района", "address": "Санкт-Петербург, Петроградская набережная, 18 к3" }, "geometry": { "type": "Point", "coordinates": [ 3376666.025417881086469, 8390899.528955204412341 ] } },
{ "type": "Feature", "properties": { "title": "Мировые судьи Петроградского района", "address": "Санкт-Петербург, Большая Разночинная, 23Б" }, "geometry": { "type": "Point", "coordinates": [ 3371633.048600136302412, 8391127.908550744876266 ] } },
{ "type": "Feature", "properties": { "title": "Комплексный центр социального обслуживания населения Петроградского района", "address": "Санкт-Петербург, Большая Монетная, 17 лит Д" }, "geometry": { "type": "Point", "coordinates": [ 3375012.040423674974591, 8391186.839196167886257 ] } },
{ "type": "Feature", "properties": { "title": "SPAR, сеть супермаркетов", "address": "Санкт-Петербург, Куйбышева, 27" }, "geometry": { "type": "Point", "coordinates": [ 3376640.978532452601939, 8390220.213776739314198 ] } },
{ "type": "Feature", "properties": { "title": "Stop Express, сеть магазинов", "address": "Санкт-Петербург, Петроградская набережная, 18 лит А" }, "geometry": { "type": "Point", "coordinates": [ 3376810.9633948947303, 8390675.159011758863926 ] } },
{ "type": "Feature", "properties": { "title": "Парадиз, продовольственный магазин", "address": "Санкт-Петербург, Каменноостровский проспект, 22" }, "geometry": { "type": "Point", "coordinates": [ 3374750.99621776631102, 8391043.627427907660604 ] } },
{ "type": "Feature", "properties": { "title": "Естный, сеть супермаркетов", "address": "Санкт-Петербург, Корпусная, 9" }, "geometry": { "type": "Point", "coordinates": [ 3371611.00734095973894, 8391449.47546436265111 ] } },
{ "type": "Feature", "properties": { "title": "Администрация Петроградского района Санкт-Петербурга", "address": "Санкт-Петербург, Петроградская набережная, 18 к3" }, "geometry": { "type": "Point", "coordinates": [ 3376666.025417881086469, 8390899.528955204412341 ] } },
{ "type": "Feature", "properties": { "title": "РУССКИЙ КАРАВАЙ, сеть универсамов", "address": "Санкт-Петербург, Миллионная, 20" }, "geometry": { "type": "Point", "coordinates": [ 3375485.036940056364983, 8387018.825245089828968 ] } },
{ "type": "Feature", "properties": { "title": "Жилищное агентство Петроградского района", "address": "Санкт-Петербург, Большая Монетная, 11" }, "geometry": { "type": "Point", "coordinates": [ 3374714.038146821316332, 8391075.64969346858561 ] } },
{ "type": "Feature", "properties": { "title": "Естный, сеть супермаркетов", "address": "Санкт-Петербург, 4-я линия В.О., 59" }, "geometry": { "type": "Point", "coordinates": [ 3370329.052084982860833, 8388271.115904939360917 ] } },
{ "type": "Feature", "properties": { "title": "ДИКСИ, сеть супермаркетов", "address": "Санкт-Петербург, Большая Пушкарская, 8" }, "geometry": { "type": "Point", "coordinates": [ 3372712.958980323281139, 8389806.651574563235044 ] } },
{ "type": "Feature", "properties": { "title": "Продуктовый магазин, ИП Ахмедов М.А.", "address": "Санкт-Петербург, Средний проспект В.О., 13" }, "geometry": { "type": "Point", "coordinates": [ 3371214.042036790400743, 8387492.68798453733325 ] } },
{ "type": "Feature", "properties": { "title": "Администрация Петроградского района Санкт-Петербурга", "address": "Санкт-Петербург, Большая Монетная, 17-19к" }, "geometry": { "type": "Point", "coordinates": [ 3375099.982821400742978, 8391140.806538507342339 ] } },
{ "type": "Feature", "properties": { "title": "Божья Коровка, магазин", "address": "Санкт-Петербург, Большой проспект П.С., 58" }, "geometry": { "type": "Point", "coordinates": [ 3373373.974116652738303, 8391075.64969346858561 ] } },
{ "type": "Feature", "properties": { "title": "Продовольственный магазин, ИП Круглова М.В.", "address": "Санкт-Петербург, Волховский переулок, 6" }, "geometry": { "type": "Point", "coordinates": [ 3371886.968358636833727, 8387471.572438948787749 ] } },
{ "type": "Feature", "properties": { "title": "Продовольственный магазин, ИП Абубакаров Б.К.", "address": "Санкт-Петербург, Сестрорецкая, 3" }, "geometry": { "type": "Point", "coordinates": [ 3372244.97184102749452, 8396982.802506722509861 ] } },
{ "type": "Feature", "properties": { "title": "Тюльпан, продовольственный магазин", "address": "Санкт-Петербург, Миллионная, 18" }, "geometry": { "type": "Point", "coordinates": [ 3375485.036940056364983, 8387018.825245089828968 ] } },
{ "type": "Feature", "properties": { "title": "Ветеринарная станция Выборгского, Калининского и Петроградского районов", "address": "Санкт-Петербург, Вяземский переулок, 4" }, "geometry": { "type": "Point", "coordinates": [ 3373094.005597308278084, 8393596.950449591502547 ] } },
{ "type": "Feature", "properties": { "title": "Естный, сеть супермаркетов", "address": "Санкт-Петербург, Ропшинская, 4" }, "geometry": { "type": "Point", "coordinates": [ 3372653.95965020172298, 8390328.499757889658213 ] } },
{ "type": "Feature", "properties": { "title": "SPAR, сеть супермаркетов", "address": "Санкт-Петербург, Большая Разночинная, 16 лит А" }, "geometry": { "type": "Point", "coordinates": [ 3371877.951479881070554, 8390678.049760445952415 ] } },
{ "type": "Feature", "properties": { "title": "Магазин", "address": "Санкт-Петербург, Большая Монетная, 10" }, "geometry": { "type": "Point", "coordinates": [ 3374631.995682108215988, 8391105.893072068691254 ] } },
{ "type": "Feature", "properties": { "title": "Администрация Петроградского района Санкт-Петербурга", "address": "Санкт-Петербург, Большая Монетная, 17-19к" }, "geometry": { "type": "Point", "coordinates": [ 3375099.982821400742978, 8391140.806538507342339 ] } },
{ "type": "Feature", "properties": { "title": "Жар птица, продуктовый магазин", "address": "Санкт-Петербург, Профессора Попова, 43" }, "geometry": { "type": "Point", "coordinates": [ 3372070.979476918000728, 8393359.596448300406337 ] } },
{ "type": "Feature", "properties": { "title": "Администрация Петроградского района Санкт-Петербурга", "address": "Санкт-Петербург, Большая Монетная, 17-19к" }, "geometry": { "type": "Point", "coordinates": [ 3375099.982821400742978, 8391140.806538507342339 ] } },
{ "type": "Feature", "properties": { "title": "Любимые лакомства, магазин", "address": "Санкт-Петербург, Савушкина, 2 к1" }, "geometry": { "type": "Point", "coordinates": [ 3372871.032657248433679, 8396637.181588442996144 ] } },
{ "type": "Feature", "properties": { "title": "Белорусский гостинец, сеть продовольственных магазинов", "address": "Санкт-Петербург, Ропшинская, 17" }, "geometry": { "type": "Point", "coordinates": [ 3372513.029174858238548, 8390517.726103836670518 ] } },
{ "type": "Feature", "properties": { "title": "Естный, сеть супермаркетов", "address": "Санкт-Петербург, Съезжинская, 13" }, "geometry": { "type": "Point", "coordinates": [ 3372772.960185859818012, 8389504.054368184879422 ] } },
{ "type": "Feature", "properties": { "title": "Продуктовый магазин, ИП Сакалова Ф.В.", "address": "Санкт-Петербург, Торжковская, 1а" }, "geometry": { "type": "Point", "coordinates": [ 3373480.952147303149104, 8396823.454337645322084 ] } },
{ "type": "Feature", "properties": { "title": "Естный, сеть супермаркетов", "address": "Санкт-Петербург, Глухая Зеленина, 6" }, "geometry": { "type": "Point", "coordinates": [ 3371081.015245293267071, 8391759.936506219208241 ] } },
{ "type": "Feature", "properties": { "title": "B & W music, магазин", "address": "Санкт-Петербург, Малый проспект П.С., 76" }, "geometry": { "type": "Point", "coordinates": [ 3373388.000372491776943, 8391897.157339138910174 ] } },
{ "type": "Feature", "properties": { "title": "ЮлВо, ООО, продуктовый магазин", "address": "Санкт-Петербург, Льва Толстого, 7" }, "geometry": { "type": "Point", "coordinates": [ 3374648.02568878326565, 8392010.360890209674835 ] } },
{ "type": "Feature", "properties": { "title": "ДИКСИ, сеть супермаркетов", "address": "Санкт-Петербург, Каменноостровский проспект, 54\/31" }, "geometry": { "type": "Point", "coordinates": [ 3373645.037076735403389, 8393413.651091950014234 ] } },
{ "type": "Feature", "properties": { "title": "Беларусачка, сеть продуктовых магазинов", "address": "Санкт-Петербург, Савушкина, 10а" }, "geometry": { "type": "Point", "coordinates": [ 3372759.045249512419105, 8396654.095048647373915 ] } },
{ "type": "Feature", "properties": { "title": "Естный, сеть супермаркетов", "address": "Санкт-Петербург, Глухая Зеленина, 2" }, "geometry": { "type": "Point", "coordinates": [ 3370936.96782420668751, 8391642.733701813966036 ] } },
{ "type": "Feature", "properties": { "title": "Продуктовый магазин, ИП Берзан М.Д.", "address": "Санкт-Петербург, Карельский переулок, 3Б" }, "geometry": { "type": "Point", "coordinates": [ 3372463.046723492443562, 8396818.335668694227934 ] } },
{ "type": "Feature", "properties": { "title": "Продовольственный магазин", "address": "Санкт-Петербург, Савушкина, 10Б" }, "geometry": { "type": "Point", "coordinates": [ 3372759.045249512419105, 8396654.095048647373915 ] } },
{ "type": "Feature", "properties": { "title": "Магазин №22, ООО, продовольственный магазин", "address": "Санкт-Петербург, Татарский переулок, 1" }, "geometry": { "type": "Point", "coordinates": [ 3373624.999568392988294, 8389328.860490323975682 ] } },
{ "type": "Feature", "properties": { "title": "Реалъ, сеть универсамов", "address": "Санкт-Петербург, Савушкина, 37" }, "geometry": { "type": "Point", "coordinates": [ 3370647.982426105998456, 8396355.667197052389383 ] } },
{ "type": "Feature", "properties": { "title": "Продуктовый магазин, ИП Толкачев А.А.", "address": "Санкт-Петербург, Съезжинская, 12" }, "geometry": { "type": "Point", "coordinates": [ 3372798.007071288302541, 8389587.206219708546996 ] } },
{ "type": "Feature", "properties": { "title": "Отдел Петроградский Райжилобмен", "address": "Санкт-Петербург, Каменноостровский проспект, 26-28" }, "geometry": { "type": "Point", "coordinates": [ 3374528.023277706932276, 8391470.380023440346122 ] } },
{ "type": "Feature", "properties": { "title": "Здоровое питание, ООО, магазин", "address": "Санкт-Петербург, Карельский переулок, 3Б" }, "geometry": { "type": "Point", "coordinates": [ 3372463.046723492443562, 8396818.335668694227934 ] } },
{ "type": "Feature", "properties": { "title": "Халяль, продуктовый магазин", "address": "Санкт-Петербург, Конный переулок, 1-3" }, "geometry": { "type": "Point", "coordinates": [ 3375736.952947720419616, 8389849.78547266498208 ] } },
{ "type": "Feature", "properties": { "title": "Сеньор Помидор, продовольственный магазин", "address": "Санкт-Петербург, Пионерская, 37" }, "geometry": { "type": "Point", "coordinates": [ 3371577.05489626666531, 8390553.97095263376832 ] } },
{ "type": "Feature", "properties": { "title": "Мини-маркет", "address": "Санкт-Петербург, Яблочкова, 2" }, "geometry": { "type": "Point", "coordinates": [ 3373230.038015057332814, 8388787.964560143649578 ] } },
{ "type": "Feature", "properties": { "title": "Продуктовый магазин", "address": "Санкт-Петербург, Малый проспект П.С., 57" }, "geometry": { "type": "Point", "coordinates": [ 3373122.948664912953973, 8391474.383030872792006 ] } },
{ "type": "Feature", "properties": { "title": "Народная семьЯ, сеть универсамов", "address": "Санкт-Петербург, Большой проспект П.С., 29\/2 лит А" }, "geometry": { "type": "Point", "coordinates": [ 3372977.008812483400106, 8390392.538212249055505 ] } },
{ "type": "Feature", "properties": { "title": "Мировые судьи Петроградского района", "address": "Санкт-Петербург, Большая Разночинная, 23Б" }, "geometry": { "type": "Point", "coordinates": [ 3371633.048600136302412, 8391127.908550744876266 ] } },
{ "type": "Feature", "properties": { "title": "Естный, сеть супермаркетов", "address": "Санкт-Петербург, Дивенская, 5" }, "geometry": { "type": "Point", "coordinates": [ 3375314.050202198792249, 8390808.35699450224638 ] } },
{ "type": "Feature", "properties": { "title": "ДИКСИ, сеть супермаркетов", "address": "Санкт-Петербург, Сытнинская площадь, 4" }, "geometry": { "type": "Point", "coordinates": [ 3374101.001711023505777, 8390175.298908593133092 ] } },
{ "type": "Feature", "properties": { "title": "Естный, сеть супермаркетов", "address": "Санкт-Петербург, Блохина, 1\/75" }, "geometry": { "type": "Point", "coordinates": [ 3373578.022743276320398, 8388784.852244693785906 ] } },
{ "type": "Feature", "properties": { "title": "ДИКСИ, сеть супермаркетов", "address": "Санкт-Петербург, Большая Пушкарская, 8" }, "geometry": { "type": "Point", "coordinates": [ 3372712.958980323281139, 8389806.651574563235044 ] } },
{ "type": "Feature", "properties": { "title": "Продовольственный магазин", "address": "Санкт-Петербург, Съезжинская, 25" }, "geometry": { "type": "Point", "coordinates": [ 3373139.980547006241977, 8389473.150576986372471 ] } },
{ "type": "Feature", "properties": { "title": "Гривас, ООО, универсам", "address": "Санкт-Петербург, Большой проспект П.С., 67" }, "geometry": { "type": "Point", "coordinates": [ 3374046.009882572107017, 8391725.909693513065577 ] } },
{ "type": "Feature", "properties": { "title": "Администрация Петроградского района Санкт-Петербурга", "address": "Санкт-Петербург, Большая Монетная, 17-19к" }, "geometry": { "type": "Point", "coordinates": [ 3375099.982821400742978, 8391140.806538507342339 ] } },
{ "type": "Feature", "properties": { "title": "География чая, магазин", "address": "Санкт-Петербург, Большая Зеленина, 9" }, "geometry": { "type": "Point", "coordinates": [ 3372340.03868616418913, 8390921.543817250058055 ] } },
{ "type": "Feature", "properties": { "title": "Центр гражданской обороны Петроградского района", "address": "Санкт-Петербург, Большая Пушкарская, 47" }, "geometry": { "type": "Point", "coordinates": [ 3374380.970230367965996, 8391737.919138878583908 ] } },
{ "type": "Feature", "properties": { "title": "Администрация Петроградского района Санкт-Петербурга", "address": "Санкт-Петербург, Большая Монетная, 17-19к" }, "geometry": { "type": "Point", "coordinates": [ 3375099.982821400742978, 8391140.806538507342339 ] } },
{ "type": "Feature", "properties": { "title": "ЭЛСО ЭнергоДом, магазин", "address": "Санкт-Петербург, Большая Зеленина, 3" }, "geometry": { "type": "Point", "coordinates": [ 3372470.950407338794321, 8390790.345106454566121 ] } },
{ "type": "Feature", "properties": { "title": "Продуктовый магазин", "address": "Санкт-Петербург, Тучков переулок, 12" }, "geometry": { "type": "Point", "coordinates": [ 3371684.032926919870079, 8387440.677170757204294 ] } },
{ "type": "Feature", "properties": { "title": "Администрация Петроградского района Санкт-Петербурга", "address": "Санкт-Петербург, Большая Монетная, 17-19к" }, "geometry": { "type": "Point", "coordinates": [ 3375099.982821400742978, 8391140.806538507342339 ] } },
{ "type": "Feature", "properties": { "title": "Продуктовый магазин", "address": "Санкт-Петербург, Новоладожская, 12а" }, "geometry": { "type": "Point", "coordinates": [ 3370189.012165566440672, 8391442.35903225466609 ] } },
{ "type": "Feature", "properties": { "title": "Санкт-Петербургские сувениры, магазин", "address": "Санкт-Петербург, Петропавловская Крепость, 3а" }, "geometry": { "type": "Point", "coordinates": [ 3374833.038682479877025, 8388514.530432680621743 ] } },
{ "type": "Feature", "properties": { "title": "Белорусский дворик, сеть продуктовых магазинов", "address": "Санкт-Петербург, Комсомола, 51" }, "geometry": { "type": "Point", "coordinates": [ 3378760.946915120817721, 8389911.818686351180077 ] } },
{ "type": "Feature", "properties": { "title": "ДИКСИ, сеть супермаркетов", "address": "Санкт-Петербург, Блохина, 15" }, "geometry": { "type": "Point", "coordinates": [ 3373132.96741908416152, 8389039.399529805406928 ] } },
{ "type": "Feature", "properties": { "title": "Сантех, магазин", "address": "Санкт-Петербург, Ленина, 26" }, "geometry": { "type": "Point", "coordinates": [ 3373254.973580994643271, 8391450.365018863230944 ] } },
{ "type": "Feature", "properties": { "title": "Прокуратура Петроградского района", "address": "Санкт-Петербург, Большая Монетная, 27" }, "geometry": { "type": "Point", "coordinates": [ 3375798.957904093898833, 8391468.378520533442497 ] } },
{ "type": "Feature", "properties": { "title": "Продовольственный магазин", "address": "Санкт-Петербург, Большой Сампсониевский проспект, 21" }, "geometry": { "type": "Point", "coordinates": [ 3377878.962589565198869, 8391813.979414112865925 ] } },
{ "type": "Feature", "properties": { "title": "MISSONI HOME, магазин", "address": "Санкт-Петербург, Куйбышева, 27" }, "geometry": { "type": "Point", "coordinates": [ 3376640.978532452601939, 8390220.213776739314198 ] } },
{ "type": "Feature", "properties": { "title": "Продуктовый магазин", "address": "Санкт-Петербург, Малый проспект П.С., 57" }, "geometry": { "type": "Point", "coordinates": [ 3373122.948664912953973, 8391474.383030872792006 ] } },
{ "type": "Feature", "properties": { "title": "Лайм, сеть супермаркетов", "address": "Санкт-Петербург, Малая Посадская, 13" }, "geometry": { "type": "Point", "coordinates": [ 3375985.974648626986891, 8390167.294307375326753 ] } },
{ "type": "Feature", "properties": { "title": "Продуктовый магазин", "address": "Санкт-Петербург, Савушкина, 7" }, "geometry": { "type": "Point", "coordinates": [ 3372717.968357408884913, 8396727.312975652515888 ] } },
{ "type": "Feature", "properties": { "title": "Продуктовый магазин", "address": "Санкт-Петербург, Школьная, 64" }, "geometry": { "type": "Point", "coordinates": [ 3368905.053158755879849, 8396842.371188564226031 ] } },
{ "type": "Feature", "properties": { "title": "Союз, ООО, продовольственный магазин", "address": "Санкт-Петербург, Большой проспект П.С., 2" }, "geometry": { "type": "Point", "coordinates": [ 3371949.975190425757319, 8389259.717860056087375 ] } },
{ "type": "Feature", "properties": { "title": "Реалъ, сеть универсамов", "address": "Санкт-Петербург, Каменноостровский проспект, 59" }, "geometry": { "type": "Point", "coordinates": [ 3373664.963265587110072, 8393586.050238896161318 ] } },
{ "type": "Feature", "properties": { "title": "Ветеринарная станция Выборгского, Калининского и Петроградского районов", "address": "Санкт-Петербург, Зеленогорская, 16а" }, "geometry": { "type": "Point", "coordinates": [ 3375504.963128908071667, 8400170.044760474935174 ] } },
{ "type": "Feature", "properties": { "title": "Юта, ООО, мини-маркет", "address": "Санкт-Петербург, Ропшинская, 24" }, "geometry": { "type": "Point", "coordinates": [ 3372197.995015910826623, 8390701.175790771842003 ] } },
{ "type": "Feature", "properties": { "title": "Продуктовый магазин, ИП Мамедов К.Б.", "address": "Санкт-Петербург, Ординарная, 11" }, "geometry": { "type": "Point", "coordinates": [ 3373730.975723627954721, 8392187.620239453390241 ] } },
{ "type": "Feature", "properties": { "title": "Магнит, сеть универсамов", "address": "Санкт-Петербург, Ижорская, 13" }, "geometry": { "type": "Point", "coordinates": [ 3372648.950273116119206, 8390711.18226870149374 ] } },
{ "type": "Feature", "properties": { "title": "Народная семьЯ, сеть универсамов", "address": "Санкт-Петербург, 1-я линия В.О., 44" }, "geometry": { "type": "Point", "coordinates": [ 3371440.020603102166206, 8387479.796381091699004 ] } },
{ "type": "Feature", "properties": { "title": "Администрация Петроградского района Санкт-Петербурга", "address": "Санкт-Петербург, Большая Монетная, 17-19к" }, "geometry": { "type": "Point", "coordinates": [ 3375099.982821400742978, 8391140.806538507342339 ] } },
{ "type": "Feature", "properties": { "title": "Петрорадуга, магазин", "address": "Санкт-Петербург, Большой Сампсониевский проспект, 49" }, "geometry": { "type": "Point", "coordinates": [ 3377547.007868018466979, 8393232.358276570215821 ] } },
{ "type": "Feature", "properties": { "title": "ДИКСИ, сеть супермаркетов", "address": "Санкт-Петербург, Чайковского, 2" }, "geometry": { "type": "Point", "coordinates": [ 3377129.003180091269314, 8388128.849949823692441 ] } },
{ "type": "Feature", "properties": { "title": "ЦБС Петроградского района, ГБУ", "address": "Санкт-Петербург, Большая Пушкарская, 64" }, "geometry": { "type": "Point", "coordinates": [ 3374303.046586813405156, 8391761.938088333234191 ] } },
{ "type": "Feature", "properties": { "title": "Естный, сеть супермаркетов", "address": "Санкт-Петербург, Ораниенбаумская, 13" }, "geometry": { "type": "Point", "coordinates": [ 3372872.034532663878053, 8390944.448238495737314 ] } },
{ "type": "Feature", "properties": { "title": "Комплексный центр социального обслуживания населения Петроградского района", "address": "Санкт-Петербург, Воскова, 18" }, "geometry": { "type": "Point", "coordinates": [ 3373808.008811255451292, 8390440.789776442572474 ] } },
{ "type": "Feature", "properties": { "title": "ДИКСИ, сеть супермаркетов", "address": "Санкт-Петербург, Большой Сампсониевский проспект, 62" }, "geometry": { "type": "Point", "coordinates": [ 3377262.029971588402987, 8394270.125328021124005 ] } },
{ "type": "Feature", "properties": { "title": "Дворец детского творчества Петроградского района Санкт-Петербурга", "address": "Санкт-Петербург, Каменноостровский проспект, 36\/73" }, "geometry": { "type": "Point", "coordinates": [ 3374284.010953888762742, 8391935.188200583681464 ] } },
{ "type": "Feature", "properties": { "title": "Улица Гобеленов, магазин", "address": "Санкт-Петербург, Ленина, 41" }, "geometry": { "type": "Point", "coordinates": [ 3372854.000775157939643, 8391850.00823961570859 ] } },
{ "type": "Feature", "properties": { "title": "Life and style, магазин", "address": "Санкт-Петербург, Большая Пушкарская, 38" }, "geometry": { "type": "Point", "coordinates": [ 3373646.038952150847763, 8390947.561466298997402 ] } },
{ "type": "Feature", "properties": { "title": "Надежда, сеть продуктовых магазинов", "address": "Санкт-Петербург, Большая Зеленина, 16" }, "geometry": { "type": "Point", "coordinates": [ 3371874.055297704879194, 8391316.26589072868228 ] } },
{ "type": "Feature", "properties": { "title": "Лайм, сеть супермаркетов", "address": "Санкт-Петербург, Левашовский проспект, 13а" }, "geometry": { "type": "Point", "coordinates": [ 3371508.036811976693571, 8392342.8646783772856 ] } },
{ "type": "Feature", "properties": { "title": "Любимые лакомства, магазин", "address": "Санкт-Петербург, Савушкина, 2 к1" }, "geometry": { "type": "Point", "coordinates": [ 3372871.032657248433679, 8396637.181588442996144 ] } },
{ "type": "Feature", "properties": { "title": "Центр моек, магазин", "address": "Санкт-Петербург, Железноводская, 3" }, "geometry": { "type": "Point", "coordinates": [ 3368088.969971749465913, 8389353.760889060795307 ] } },
{ "type": "Feature", "properties": { "title": "Пятёрочка, сеть супермаркетов", "address": "Санкт-Петербург, Школьная, 52" }, "geometry": { "type": "Point", "coordinates": [ 3369561.949473926797509, 8396776.273697638884187 ] } },
{ "type": "Feature", "properties": { "title": "Меркурий, ООО, сеть магазинов", "address": "Санкт-Петербург, Блохина, 16" }, "geometry": { "type": "Point", "coordinates": [ 3372952.96380247361958, 8389038.287950487807393 ] } },
{ "type": "Feature", "properties": { "title": "Естный, сеть супермаркетов", "address": "Санкт-Петербург, Съезжинская, 13" }, "geometry": { "type": "Point", "coordinates": [ 3372772.960185859818012, 8389504.054368184879422 ] } },
{ "type": "Feature", "properties": { "title": "Книжный мир на Петроградской, ООО, магазин", "address": "Санкт-Петербург, Рыбацкая, 3" }, "geometry": { "type": "Point", "coordinates": [ 3372727.98711158009246, 8390508.831689655780792 ] } },
{ "type": "Feature", "properties": { "title": "Удачный, универсам", "address": "Санкт-Петербург, Воскова, 31\/20" }, "geometry": { "type": "Point", "coordinates": [ 3374274.994075132999569, 8390517.726103836670518 ] } },
{ "type": "Feature", "properties": { "title": "Продуктовый магазин, ИП Ахмедов М.А.", "address": "Санкт-Петербург, Средний проспект В.О., 13" }, "geometry": { "type": "Point", "coordinates": [ 3371214.042036790400743, 8387492.68798453733325 ] } },
{ "type": "Feature", "properties": { "title": "Естный, сеть супермаркетов", "address": "Санкт-Петербург, Большой проспект П.С., 23\/1" }, "geometry": { "type": "Point", "coordinates": [ 3372673.997158544138074, 8390049.005103128030896 ] } },
{ "type": "Feature", "properties": { "title": "О`КЕЙ, сеть гипермаркетов", "address": "Санкт-Петербург, Академика Павлова, 5" }, "geometry": { "type": "Point", "coordinates": [ 3374950.035467304289341, 8394725.988193351775408 ] } },
{ "type": "Feature", "properties": { "title": "Продуктовый магазин", "address": "Санкт-Петербург, Рюхина, 3 лит Б" }, "geometry": { "type": "Point", "coordinates": [ 3368153.980554374866188, 8393903.497673612087965 ] } },
{ "type": "Feature", "properties": { "title": "1000 кухонь, магазин", "address": "Санкт-Петербург, Савушкина, 117 к2" }, "geometry": { "type": "Point", "coordinates": [ 3365466.950685606803745, 8396693.263210857287049 ] } },
{ "type": "Feature", "properties": { "title": "Магазин финских товаров", "address": "Санкт-Петербург, Большая Пушкарская, 54" }, "geometry": { "type": "Point", "coordinates": [ 3374141.967283635865897, 8391574.681316137313843 ] } },
{ "type": "Feature", "properties": { "title": "Балтэкс Сити, ООО, продуктовый магазин", "address": "Санкт-Петербург, Большая Пушкарская, 25" }, "geometry": { "type": "Point", "coordinates": [ 3373613.978938803076744, 8390791.234581377357244 ] } },
{ "type": "Feature", "properties": { "title": "ДИКСИ, сеть супермаркетов", "address": "Санкт-Петербург, Большая Зеленина, 14" }, "geometry": { "type": "Point", "coordinates": [ 3371977.025826687924564, 8391205.963959768414497 ] } },
{ "type": "Feature", "properties": { "title": "Мини-маркет", "address": "Санкт-Петербург, Малый проспект В.О., 15" }, "geometry": { "type": "Point", "coordinates": [ 3370237.992741516325623, 8388067.720890899188817 ] } },
{ "type": "Feature", "properties": { "title": "Айсберг, ООО, продуктовый магазин", "address": "Санкт-Петербург, Большой проспект П.С., 61\/3" }, "geometry": { "type": "Point", "coordinates": [ 3373944.041229004506022, 8391595.586230468004942 ] } },
{ "type": "Feature", "properties": { "title": "Продуктовый магазин", "address": "Санкт-Петербург, Мира, 31" }, "geometry": { "type": "Point", "coordinates": [ 3375915.95468891877681, 8391203.073003945872188 ] } },
{ "type": "Feature", "properties": { "title": "Комплексный центр социального обслуживания населения Петроградского района", "address": "Санкт-Петербург, Мытнинская набережная, 11" }, "geometry": { "type": "Point", "coordinates": [ 3373341.023547377903014, 8388336.025659451261163 ] } },
{ "type": "Feature", "properties": { "title": "Хлеб, ЗАО, сеть магазинов", "address": "Санкт-Петербург, Каменноостровский проспект, 59" }, "geometry": { "type": "Point", "coordinates": [ 3373664.963265587110072, 8393586.050238896161318 ] } },
{ "type": "Feature", "properties": { "title": "ДИКСИ, сеть супермаркетов", "address": "Санкт-Петербург, Блохина, 17" }, "geometry": { "type": "Point", "coordinates": [ 3372897.971974019426852, 8389111.430226795375347 ] } },
{ "type": "Feature", "properties": { "title": "Пятёрочка, сеть супермаркетов", "address": "Санкт-Петербург, Школьная, 52" }, "geometry": { "type": "Point", "coordinates": [ 3369561.949473926797509, 8396776.273697638884187 ] } },
{ "type": "Feature", "properties": { "title": "Сатурн, ООО, мини-маркет", "address": "Санкт-Петербург, Каменноостровский проспект, 34" }, "geometry": { "type": "Point", "coordinates": [ 3374333.993405254557729, 8391825.989003039896488 ] } },
{ "type": "Feature", "properties": { "title": "Жилкомсервис №2 Петроградского района", "address": "Санкт-Петербург, Кронверкский проспект, 71\/46" }, "geometry": { "type": "Point", "coordinates": [ 3373590.045248281676322, 8389097.424202790483832 ] } },
{ "type": "Feature", "properties": { "title": "Берег, ООО, продовольственный магазин", "address": "Санкт-Петербург, Ординарная, 20" }, "geometry": { "type": "Point", "coordinates": [ 3373502.993406482506543, 8392534.144559992477298 ] } },
{ "type": "Feature", "properties": { "title": "Отдел судебных приставов по Петроградскому району", "address": "Санкт-Петербург, Плуталова, 8" }, "geometry": { "type": "Point", "coordinates": [ 3373348.036675297655165, 8392194.737391460686922 ] } },
{ "type": "Feature", "properties": { "title": "Старая книга, магазин", "address": "Санкт-Петербург, Савушкина, 20" }, "geometry": { "type": "Point", "coordinates": [ 3372186.974386324174702, 8396499.872434491291642 ] } },
{ "type": "Feature", "properties": { "title": "Витамин, продуктовый магазин", "address": "Санкт-Петербург, Большая Пушкарская, 2" }, "geometry": { "type": "Point", "coordinates": [ 3372508.019797772634774, 8389561.19337385520339 ] } },
{ "type": "Feature", "properties": { "title": "Медея, продуктовый магазин", "address": "Санкт-Петербург, Мичуринская, 19" }, "geometry": { "type": "Point", "coordinates": [ 3375985.974648626986891, 8390047.003986306488514 ] } },
{ "type": "Feature", "properties": { "title": "Канцер, ООО, продуктовый магазин", "address": "Санкт-Петербург, Зверинская, 40-42" }, "geometry": { "type": "Point", "coordinates": [ 3373358.055429468862712, 8389158.561804700642824 ] } },
{ "type": "Feature", "properties": { "title": "Мини-маркет", "address": "Санкт-Петербург, Большая Посадская, 12" }, "geometry": { "type": "Point", "coordinates": [ 3375768.01108565274626, 8390659.14873187430203 ] } },
{ "type": "Feature", "properties": { "title": "Пятёрочка, сеть супермаркетов", "address": "Санкт-Петербург, Липовая аллея, 9" }, "geometry": { "type": "Point", "coordinates": [ 3368253.054901181720197, 8396279.560015462338924 ] } },
{ "type": "Feature", "properties": { "title": "Фа-Маркет, мини-маркет", "address": "Санкт-Петербург, Липовая аллея, 12" }, "geometry": { "type": "Point", "coordinates": [ 3368011.04632819769904, 8396823.454337645322084 ] } },
{ "type": "Feature", "properties": { "title": "Decorato, магазин", "address": "Санкт-Петербург, Железноводская, 3" }, "geometry": { "type": "Point", "coordinates": [ 3368088.969971749465913, 8389353.760889060795307 ] } },
{ "type": "Feature", "properties": { "title": "ДИКСИ, сеть супермаркетов", "address": "Санкт-Петербург, Большой Сампсониевский проспект, 57" }, "geometry": { "type": "Point", "coordinates": [ 3377475.986032894812524, 8393624.08981978148222 ] } },
{ "type": "Feature", "properties": { "title": "Пятёрочка, сеть супермаркетов", "address": "Санкт-Петербург, Липовая аллея, 9" }, "geometry": { "type": "Point", "coordinates": [ 3368253.054901181720197, 8396279.560015462338924 ] } },
{ "type": "Feature", "properties": { "title": "Хлеб, ЗАО, сеть магазинов", "address": "Санкт-Петербург, Большой Сампсониевский проспект, 56" }, "geometry": { "type": "Point", "coordinates": [ 3377391.049261418171227, 8393681.038331411778927 ] } },
{ "type": "Feature", "properties": { "title": "Народный Фермер, магазин", "address": "Санкт-Петербург, Академика Крылова, 3 к2" }, "geometry": { "type": "Point", "coordinates": [ 3373330.002917788457125, 8396567.97033353894949 ] } },
{ "type": "Feature", "properties": { "title": "Омега плюс, магазин", "address": "Санкт-Петербург, Яблочкова, 3" }, "geometry": { "type": "Point", "coordinates": [ 3373048.03064761031419, 8388877.999969040974975 ] } },
{ "type": "Feature", "properties": { "title": "Руно, магазин", "address": "Санкт-Петербург, Большой проспект П.С., 22-24" }, "geometry": { "type": "Point", "coordinates": [ 3372530.951612875796854, 8389983.857912497594953 ] } },
{ "type": "Feature", "properties": { "title": "Естный, сеть супермаркетов", "address": "Санкт-Петербург, Ораниенбаумская, 13" }, "geometry": { "type": "Point", "coordinates": [ 3372872.034532663878053, 8390944.448238495737314 ] } },
{ "type": "Feature", "properties": { "title": "Гвардия, магазин", "address": "Санкт-Петербург, Большая Пушкарская, 19" }, "geometry": { "type": "Point", "coordinates": [ 3373498.985904812347144, 8390542.852881897240877 ] } },
{ "type": "Feature", "properties": { "title": "ДИКСИ, сеть супермаркетов", "address": "Санкт-Петербург, Каменноостровский проспект, 26-28" }, "geometry": { "type": "Point", "coordinates": [ 3374528.023277706932276, 8391470.380023440346122 ] } },
{ "type": "Feature", "properties": { "title": "Мини-маркет", "address": "Санкт-Петербург, 3-я линия В.О., 46" }, "geometry": { "type": "Point", "coordinates": [ 3370915.037884518504143, 8387759.193597740493715 ] } },
{ "type": "Feature", "properties": { "title": "Продовольственный магазин", "address": "Санкт-Петербург, Савушкина, 107а" }, "geometry": { "type": "Point", "coordinates": [ 3366401.032532853074372, 8396405.738140108063817 ] } },
{ "type": "Feature", "properties": { "title": "SPAR, сеть супермаркетов", "address": "Санкт-Петербург, Чкаловский проспект, 15" }, "geometry": { "type": "Point", "coordinates": [ 3372313.989925317466259, 8391378.311452589929104 ] } },
{ "type": "Feature", "properties": { "title": "Первый Табачный, магазин", "address": "Санкт-Петербург, Чапаева, 2а" }, "geometry": { "type": "Point", "coordinates": [ 3376610.031714014243335, 8390420.555211048573256 ] } },
{ "type": "Feature", "properties": { "title": "Магазин", "address": "Санкт-Петербург, Пионерская, 19" }, "geometry": { "type": "Point", "coordinates": [ 3371989.048331692814827, 8390301.372524917125702 ] } },
{ "type": "Feature", "properties": { "title": "Пятёрочка, сеть супермаркетов", "address": "Санкт-Петербург, Малый Сампсониевский проспект, 2" }, "geometry": { "type": "Point", "coordinates": [ 3377505.040419990662485, 8392579.296233294531703 ] } },
{ "type": "Feature", "properties": { "title": "Естный, сеть супермаркетов", "address": "Санкт-Петербург, Большой Сампсониевский проспект, 43" }, "geometry": { "type": "Point", "coordinates": [ 3377660.999026591423899, 8392777.699968909844756 ] } }
]
}
